c
$GNGGA,183635.000,4641.2298,N,00023.1501,E,1,7,1.04,52.0,M,48.3,M,,*70
$GNRMC,183635.000,A,4641.2298,N,00023.1501,E,61.351,35.96,070124,,,A,V*3B
$GNVTG,35.96,T,,M,61.351,N,113.683,K,A*24
$GNGGA,183636.000,4641.2434,N,00023.1666,E,1,8,1.03,52.1,M,48.3,M,,*78
$GNRMC,183636.000,A,4641.2434,N,00023.1666,E,61.665,37.58,070124,,,A,V*38
$GNVTG,37.58,T,,M,61.665,N,114.265,K,A*2D
$GNGGA,183637.000,4641.2559,N,00023.1870,E,1,7,1.27,42.1,M,48.3,M,,*72
$GNRMC,183637.000,A,4641.2559,N,00023.1870,E,63.442,39.49,070124,,,A,V*31
$GNVTG,39.49,T,,M,63.442,N,117.558,K,A*2C
$GNGGA,183638.000,4641.2711,N,00023.2058,E,1,6,1.62,38.5,M,48.3,M,,*7B
$GNRMC,183638.000,A,4641.2711,N,00023.2058,E,65.732,37.99,070124,,,A,V*30
$GNVTG,37.99,T,,M,65.732,N,121.801,K,A*29
$GNGGA,183639.000,4641.2852,N,00023.2227,E,1,6,1.62,38.2,M,48.3,M,,*7F
$GNRMC,183639.000,A,4641.2852,N,00023.2227,E,65.709,39.48,070124,,,A,V*39
$GNVTG,39.48,T,,M,65.709,N,121.759,K,A*21
$GNGGA,183640.000,4641.2994,N,00023.2397,E,1,5,1.69,38.0,M,48.3,M,,*7A
$GNRMC,183640.000,A,4641.2994,N,00023.2397,E,65.710,40.17,070124,,,A,V*3A
$GNVTG,40.17,T,,M,65.710,N,121.761,K,A*26
$GNGGA,183641.000,4641.3143,N,00023.2579,E,1,5,1.69,37.5,M,48.3,M,,*74
$GNRMC,183641.000,A,4641.3143,N,00023.2579,E,67.091,41.15,070124,,,A,V*31
$GNVTG,41.15,T,,M,67.091,N,124.319,K,A*27
$GNGGA,183642.000,4641.3302,N,00023.2786,E,1,6,1.37,37.2,M,48.3,M,,*7D
$GNRMC,183642.000,A,4641.3302,N,00023.2786,E,69.753,40.86,070124,,,A,V*3B
$GNVTG,40.86,T,,M,69.753,N,129.252,K,A*28
$GNGGA,183643.000,4641.3459,N,00023.2983,E,1,6,1.37,36.9,M,48.3,M,,*74
$GNRMC,183643.000,A,4641.3459,N,00023.2983,E,70.419,40.22,070124,,,A,V*33
$GNVTG,40.22,T,,M,70.419,N,130.487,K,A*25
$GNGGA,183644.000,4641.3609,N,00023.3178,E,1,7,1.11,36.6,M,48.3,M,,*73
$GNRMC,183644.000,A,4641.3609,N,00023.3178,E,70.739,40.17,070124,,,A,V*39
$GNVTG,40.17,T,,M,70.739,N,131.080,K,A*20
$GNGGA,183645.000,4641.3768,N,00023.3382,E,1,8,1.01,36.4,M,48.3,M,,*7F
$GNRMC,183645.000,A,4641.3768,N,00023.3382,E,71.619,40.15,070124,,,A,V*39
$GNVTG,40.15,T,,M,71.619,N,132.709,K,A*25
$GNGGA,183646.000,4641.3906,N,00023.3666,E,1,8,1.04,39.2,M,48.3,M,,*79
$GNRMC,183646.000,A,4641.3906,N,00023.3666,E,70.199,43.04,070124,,,A,V*3E
$GNVTG,43.04,T,,M,70.199,N,130.078,K,A*2B
$GNGGA,183647.000,4641.4038,N,00023.3872,E,1,9,0.97,39.1,M,48.3,M,,*79
$GNRMC,183647.000,A,4641.4038,N,00023.3872,E,69.883,44.39,070124,,,A,V*34
$GNVTG,44.39,T,,M,69.883,N,129.492,K,A*20
$GNGGA,183648.000,4641.4170,N,00023.4070,E,1,7,1.13,39.5,M,48.3,M,,*71
$GNRMC,183648.000,A,4641.4170,N,00023.4070,E,69.045,44.76,070124,,,A,V*32
$GNVTG,44.76,T,,M,69.045,N,127.941,K,A*24
$GNGGA,183649.000,4641.4297,N,00023.4273,E,1,7,1.29,40.2,M,48.3,M,,*7B
$GNRMC,183649.000,A,4641.4297,N,00023.4273,E,68.694,45.75,070124,,,A,V*31
$GNVTG,45.75,T,,M,68.694,N,127.290,K,A*2A
$GNGGA,183650.000,4641.4428,N,00023.4480,E,1,6,1.30,40.4,M,48.3,M,,*74
$GNRMC,183650.000,A,4641.4428,N,00023.4480,E,69.458,46.57,070124,,,A,V*31
$GNVTG,46.57,T,,M,69.458,N,128.706,K,A*2F
$GNGGA,183651.000,4641.4555,N,00023.4700,E,1,6,1.30,40.5,M,48.3,M,,*74
$GNRMC,183651.000,A,4641.4555,N,00023.4700,E,70.695,49.40,070124,,,A,V*32
$GNVTG,49.40,T,,M,70.695,N,130.998,K,A*2D
$GNGGA,183652.000,4641.4683,N,00023.4917,E,1,6,1.30,40.4,M,48.3,M,,*76
$GNRMC,183652.000,A,4641.4683,N,00023.4917,E,72.120,49.51,070124,,,A,V*3A
$GNVTG,49.51,T,,M,72.120,N,133.638,K,A*20
$GNGGA,183653.000,4641.4818,N,00023.5145,E,1,6,1.30,41.6,M,48.3,M,,*76
$GNRMC,183653.000,A,4641.4818,N,00023.5145,E,72.836,50.28,070124,,,A,V*31
$GNVTG,50.28,T,,M,72.836,N,134.965,K,A*28
$GNGGA,183654.000,4641.4952,N,00023.5372,E,1,7,1.26,42.6,M,48.3,M,,*7D
$GNRMC,183654.000,A,4641.4952,N,00023.5372,E,73.341,50.39,070124,,,A,V*35
$GNVTG,50.39,T,,M,73.341,N,135.900,K,A*20
$GNGGA,183655.000,4641.5080,N,00023.5609,E,1,7,1.26,43.3,M,48.3,M,,*76
$GNRMC,183655.000,A,4641.5080,N,00023.5609,E,74.628,51.45,070124,,,A,V*3D
$GNVTG,51.45,T,,M,74.628,N,138.285,K,A*2C
$GNGGA,183656.000,4641.5201,N,00023.5838,E,1,7,1.26,44.1,M,48.3,M,,*77
$GNRMC,183656.000,A,4641.5201,N,00023.5838,E,73.318,53.12,070124,,,A,V*38
$GNVTG,53.12,T,,M,73.318,N,135.859,K,A*2B
$GNGGA,183657.000,4641.5326,N,00023.6069,E,1,7,1.26,44.5,M,48.3,M,,*79
$GNRMC,183657.000,A,4641.5326,N,00023.6069,E,74.280,52.89,070124,,,A,V*36
$GNVTG,52.89,T,,M,74.280,N,137.642,K,A*29
$GNGGA,183658.000,4641.5448,N,00023.6307,E,1,7,1.26,44.8,M,48.3,M,,*7F
$GNRMC,183658.000,A,4641.5448,N,00023.6307,E,74.063,53.46,070124,,,A,V*30
$GNVTG,53.46,T,,M,74.063,N,137.239,K,A*2C
$GNGGA,183659.000,4641.5573,N,00023.6550,E,1,7,1.26,45.0,M,48.3,M,,*7A
$GNRMC,183659.000,A,4641.5573,N,00023.6550,E,74.549,53.24,070124,,,A,V*35
$GNVTG,53.24,T,,M,74.549,N,138.139,K,A*29
$GNGGA,183700.000,4641.5699,N,00023.6787,E,1,7,1.12,45.0,M,48.3,M,,*7F
$GNRMC,183700.000,A,4641.5699,N,00023.6787,E,74.159,52.41,070124,,,A,V*30
$GNVTG,52.41,T,,M,74.159,N,137.417,K,A*28
$GNGGA,183701.000,4641.5825,N,00023.7021,E,1,7,1.12,45.0,M,48.3,M,,*7D
$GNRMC,183701.000,A,4641.5825,N,00023.7021,E,73.942,52.31,070124,,,A,V*30
$GNVTG,52.31,T,,M,73.942,N,137.015,K,A*2C
$GNGGA,183702.000,4641.5956,N,00023.7253,E,1,6,1.30,44.9,M,48.3,M,,*75
$GNRMC,183702.000,A,4641.5956,N,00023.7253,E,74.002,51.28,070124,,,A,V*30
$GNVTG,51.28,T,,M,74.002,N,137.125,K,A*2F
$GNGGA,183703.000,4641.6080,N,00023.7480,E,1,5,1.33,44.9,M,48.3,M,,*7D
$GNRMC,183703.000,A,4641.6080,N,00023.7480,E,73.152,51.33,070124,,,A,V*31
$GNVTG,51.33,T,,M,73.152,N,135.551,K,A*23
$GNGGA,183704.000,4641.6203,N,00023.7728,E,1,5,1.33,44.8,M,48.3,M,,*73
$GNRMC,183704.000,A,4641.6203,N,00023.7728,E,73.725,52.60,070124,,,A,V*3D
$GNVTG,52.60,T,,M,73.725,N,136.612,K,A*27
$GNGGA,183705.000,4641.6317,N,00023.7960,E,1,5,1.33,44.9,M,48.3,M,,*75
$GNRMC,183705.000,A,4641.6317,N,00023.7960,E,72.676,53.43,070124,,,A,V*3C
$GNVTG,53.43,T,,M,72.676,N,134.668,K,A*2E
$GNGGA,183706.000,4641.6435,N,00023.8221,E,1,6,1.30,44.9,M,48.3,M,,*70
$GNRMC,183706.000,A,4641.6435,N,00023.8221,E,73.712,54.45,070124,,,A,V*3A
$GNVTG,54.45,T,,M,73.712,N,136.587,K,A*2D
$GNGGA,183707.000,4641.6542,N,00023.8509,E,1,8,1.18,44.8,M,48.3,M,,*78
$GNRMC,183707.000,A,4641.6542,N,00023.8509,E,75.133,55.57,070124,,,A,V*36
$GNVTG,55.57,T,,M,75.133,N,139.221,K,A*28
$GNGGA,183708.000,4641.6631,N,00023.8789,E,1,7,1.57,44.6,M,48.3,M,,*70
$GNRMC,183708.000,A,4641.6631,N,00023.8789,E,74.915,57.24,070124,,,A,V*3F
$GNVTG,57.24,T,,M,74.915,N,138.818,K,A*22
$GNGGA,183709.000,4641.6707,N,00023.9073,E,1,7,1.57,44.5,M,48.3,M,,*75
$GNRMC,183709.000,A,4641.6707,N,00023.9073,E,74.412,59.38,070124,,,A,V*30
$GNVTG,59.38,T,,M,74.412,N,137.886,K,A*23
$GNGGA,183710.000,4641.6768,N,00023.9365,E,1,7,1.25,43.9,M,48.3,M,,*7E
$GNRMC,183710.000,A,4641.6768,N,00023.9365,E,73.496,62.34,070124,,,A,V*3A
$GNVTG,62.34,T,,M,73.496,N,136.188,K,A*2A
$GNGGA,183711.000,4641.6821,N,00023.9640,E,1,9,1.10,42.3,M,48.3,M,,*7C
$GNRMC,183711.000,A,4641.6821,N,00023.9640,E,73.671,64.10,070124,,,A,V*30
$GNVTG,64.10,T,,M,73.671,N,136.513,K,A*27
$GNGGA,183712.000,4641.6890,N,00023.9929,E,1,9,0.98,41.4,M,48.3,M,,*70
$GNRMC,183712.000,A,4641.6890,N,00023.9929,E,74.820,65.43,070124,,,A,V*33
$GNVTG,65.43,T,,M,74.820,N,138.642,K,A*24
$GNGGA,183713.000,4641.6960,N,00024.0238,E,1,9,0.98,41.2,M,48.3,M,,*7C
$GNRMC,183713.000,A,4641.6960,N,00024.0238,E,75.422,67.36,070124,,,A,V*36
$GNVTG,67.36,T,,M,75.422,N,139.757,K,A*2F
$GNGGA,183714.000,4641.7052,N,00024.0523,E,1,9,0.98,42.2,M,48.3,M,,*7C
$GNRMC,183714.000,A,4641.7052,N,00024.0523,E,75.411,66.55,070124,,,A,V*31
$GNVTG,66.55,T,,M,75.411,N,139.737,K,A*2D
$GNGGA,183715.000,4641.7138,N,00024.0808,E,1,9,1.10,42.7,M,48.3,M,,*70
$GNRMC,183715.000,A,4641.7138,N,00024.0808,E,74.799,67.40,070124,,,A,V*3E
$GNVTG,67.40,T,,M,74.799,N,138.603,K,A*2D
$GNGGA,183716.000,4641.7214,N,00024.1104,E,1,9,1.10,44.4,M,48.3,M,,*7F
$GNRMC,183716.000,A,4641.7214,N,00024.1104,E,75.595,68.46,070124,,,A,V*32
$GNVTG,68.46,T,,M,75.595,N,140.077,K,A*21
$GNGGA,183717.000,4641.7291,N,00024.1400,E,1,9,1.10,44.7,M,48.3,M,,*71
$GNRMC,183717.000,A,4641.7291,N,00024.1400,E,77.739,68.77,070124,,,A,V*3B
$GNVTG,68.77,T,,M,77.739,N,144.051,K,A*25
$GNGGA,183718.000,4641.7369,N,00024.1695,E,1,8,1.00,44.9,M,48.3,M,,*78
$GNRMC,183718.000,A,4641.7369,N,00024.1695,E,77.727,68.99,070124,,,A,V*33
$GNVTG,68.99,T,,M,77.727,N,144.029,K,A*25
$GNGGA,183719.000,4641.7439,N,00024.1996,E,1,8,1.16,45.6,M,48.3,M,,*7E
$GNRMC,183719.000,A,4641.7439,N,00024.1996,E,78.387,68.55,070124,,,A,V*3D
$GNVTG,68.55,T,,M,78.387,N,145.252,K,A*2B
$GNGGA,183720.000,4641.7514,N,00024.2307,E,1,9,0.95,46.3,M,48.3,M,,*76
$GNRMC,183720.000,A,4641.7514,N,00024.2307,E,79.536,68.79,070124,,,A,V*3B
$GNVTG,68.79,T,,M,79.536,N,147.381,K,A*25
$GNGGA,183721.000,4641.7601,N,00024.2615,E,1,9,0.96,46.7,M,48.3,M,,*71
$GNRMC,183721.000,A,4641.7601,N,00024.2615,E,79.950,67.83,070124,,,A,V*3D
$GNVTG,67.83,T,,M,79.950,N,148.147,K,A*24
$GNGGA,183722.000,4641.7682,N,00024.2929,E,1,9,0.95,46.8,M,48.3,M,,*75
$GNRMC,183722.000,A,4641.7682,N,00024.2929,E,80.195,67.72,070124,,,A,V*3C
$GNVTG,67.72,T,,M,80.195,N,148.600,K,A*29
$GNGGA,183723.000,4641.7765,N,00024.3233,E,1,8,0.96,46.6,M,48.3,M,,*71
$GNRMC,183723.000,A,4641.7765,N,00024.3233,E,80.190,68.34,070124,,,A,V*3C
$GNVTG,68.34,T,,M,80.190,N,148.592,K,A*29
$GNGGA,183724.000,4641.7848,N,00024.3538,E,1,7,1.66,46.6,M,48.3,M,,*7B
$GNRMC,183724.000,A,4641.7848,N,00024.3538,E,80.463,67.69,070124,,,A,V*39
$GNVTG,67.69,T,,M,80.463,N,149.097,K,A*26
$GNGGA,183725.000,4641.7933,N,00024.3850,E,1,8,1.25,46.7,M,48.3,M,,*7D
$GNRMC,183725.000,A,4641.7933,N,00024.3850,E,81.773,68.07,070124,,,A,V*32
$GNVTG,68.07,T,,M,81.773,N,151.526,K,A*24
$GNGGA,183726.000,4641.8014,N,00024.4173,E,1,8,1.03,47.1,M,48.3,M,,*71
$GNRMC,183726.000,A,4641.8014,N,00024.4173,E,83.071,68.19,070124,,,A,V*35
$GNVTG,68.19,T,,M,83.071,N,153.931,K,A*24
$GNGGA,183727.000,4641.8094,N,00024.4493,E,1,8,1.03,47.4,M,48.3,M,,*76
$GNRMC,183727.000,A,4641.8094,N,00024.4493,E,83.068,68.77,070124,,,A,V*37
$GNVTG,68.77,T,,M,83.068,N,153.924,K,A*20
$GNGGA,183728.000,4641.8179,N,00024.4810,E,1,8,1.03,47.7,M,48.3,M,,*7F
$GNRMC,183728.000,A,4641.8179,N,00024.4810,E,83.495,68.02,070124,,,A,V*39
$GNVTG,68.02,T,,M,83.495,N,154.716,K,A*2C
$GNGGA,183729.000,4641.8266,N,00024.5122,E,1,8,1.25,48.8,M,48.3,M,,*7E
$GNRMC,183729.000,A,4641.8266,N,00024.5122,E,83.494,67.20,070124,,,A,V*32
$GNVTG,67.20,T,,M,83.494,N,154.714,K,A*20
$GNGGA,183730.000,4641.8353,N,00024.5444,E,1,8,1.03,48.8,M,48.3,M,,*70
$GNRMC,183730.000,A,4641.8353,N,00024.5444,E,84.818,67.51,070124,,,A,V*31
$GNVTG,67.51,T,,M,84.818,N,157.167,K,A*28
$GNGGA,183731.000,4641.8438,N,00024.5763,E,1,8,1.25,48.9,M,48.3,M,,*78
$GNRMC,183731.000,A,4641.8438,N,00024.5763,E,85.215,67.58,070124,,,A,V*33
$GNVTG,67.58,T,,M,85.215,N,157.903,K,A*2D
$GNGGA,183732.000,4641.8531,N,00024.6084,E,1,8,1.03,48.8,M,48.3,M,,*7B
$GNRMC,183732.000,A,4641.8531,N,00024.6084,E,85.986,66.75,070124,,,A,V*3A
$GNVTG,66.75,T,,M,85.986,N,159.331,K,A*27
$GNGGA,183733.000,4641.8621,N,00024.6402,E,1,8,1.25,48.8,M,48.3,M,,*76
$GNRMC,183733.000,A,4641.8621,N,00024.6402,E,85.917,67.37,070124,,,A,V*3C
$GNVTG,67.37,T,,M,85.917,N,159.204,K,A*2F
$GNGGA,183734.000,4641.8714,N,00024.6713,E,1,8,1.25,49.0,M,48.3,M,,*7C
$GNRMC,183734.000,A,4641.8714,N,00024.6713,E,85.461,66.73,070124,,,A,V*32
$GNVTG,66.73,T,,M,85.461,N,158.360,K,A*20
$GNGGA,183735.000,4641.8808,N,00024.7029,E,1,8,1.17,49.0,M,48.3,M,,*71
$GNRMC,183735.000,A,4641.8808,N,00024.7029,E,86.119,66.84,070124,,,A,V*3F
$GNVTG,66.84,T,,M,86.119,N,159.578,K,A*2F
$GNGGA,183736.000,4641.8900,N,00024.7348,E,1,7,2.31,49.0,M,48.3,M,,*77
$GNRMC,183736.000,A,4641.8900,N,00024.7348,E,86.911,66.79,070124,,,A,V*33
$GNVTG,66.79,T,,M,86.911,N,161.046,K,A*2E
$GNGGA,183737.000,4641.8991,N,00024.7662,E,1,8,1.55,48.6,M,48.3,M,,*7A
$GNRMC,183737.000,A,4641.8991,N,00024.7662,E,86.224,67.18,070124,,,A,V*3C
$GNVTG,67.18,T,,M,86.224,N,159.774,K,A*28
$GNGGA,183738.000,4641.9080,N,00024.7981,E,1,8,1.37,47.9,M,48.3,M,,*7B
$GNRMC,183738.000,A,4641.9080,N,00024.7981,E,86.487,66.74,070124,,,A,V*3D
$GNVTG,66.74,T,,M,86.487,N,160.260,K,A*26
$GNGGA,183739.000,4641.9169,N,00024.8293,E,1,9,1.45,47.2,M,48.3,M,,*74
$GNRMC,183739.000,A,4641.9169,N,00024.8293,E,86.516,66.53,070124,,,A,V*31
$GNVTG,66.53,T,,M,86.516,N,160.315,K,A*29
$GNGGA,183740.000,4641.9263,N,00024.8603,E,1,9,1.22,46.8,M,48.3,M,,*74
$GNRMC,183740.000,A,4641.9263,N,00024.8603,E,86.543,66.27,070124,,,A,V*38
$GNVTG,66.27,T,,M,86.543,N,160.364,K,A*2C
$GNGGA,183741.000,4641.9368,N,00024.8898,E,1,9,1.45,46.8,M,48.3,M,,*72
$GNRMC,183741.000,A,4641.9368,N,00024.8898,E,85.538,65.47,070124,,,A,V*35
$GNVTG,65.47,T,,M,85.538,N,158.501,K,A*28
$GNGGA,183742.000,4641.9486,N,00024.9187,E,1,8,1.22,47.0,M,48.3,M,,*79
$GNRMC,183742.000,A,4641.9486,N,00024.9187,E,84.808,64.35,070124,,,A,V*3C
$GNVTG,64.35,T,,M,84.808,N,157.150,K,A*2C
$GNGGA,183743.000,4641.9611,N,00024.9471,E,1,8,1.22,47.3,M,48.3,M,,*7B
$GNRMC,183743.000,A,4641.9611,N,00024.9471,E,84.177,62.72,070124,,,A,V*39
$GNVTG,62.72,T,,M,84.177,N,155.979,K,A*29
$GNGGA,183744.000,4641.9750,N,00024.9756,E,1,8,1.22,47.9,M,48.3,M,,*74
$GNRMC,183744.000,A,4641.9750,N,00024.9756,E,84.217,61.12,070124,,,A,V*3C
$GNVTG,61.12,T,,M,84.217,N,156.054,K,A*2C
$GNGGA,183745.000,4641.9909,N,00025.0049,E,1,9,1.22,47.4,M,48.3,M,,*7A
$GNRMC,183745.000,A,4641.9909,N,00025.0049,E,86.052,59.57,070124,,,A,V*35
$GNVTG,59.57,T,,M,86.052,N,159.454,K,A*2C
$GNGGA,183746.000,4642.0062,N,00025.0321,E,1,7,2.36,47.1,M,48.3,M,,*77
$GNRMC,183746.000,A,4642.0062,N,00025.0321,E,86.089,58.14,070124,,,A,V*35
$GNVTG,58.14,T,,M,86.089,N,159.523,K,A*2D
$GNGGA,183747.000,4642.0220,N,00025.0575,E,1,8,2.08,46.6,M,48.3,M,,*71
$GNRMC,183747.000,A,4642.0220,N,00025.0575,E,84.842,56.17,070124,,,A,V*37
$GNVTG,56.17,T,,M,84.842,N,157.211,K,A*25
$GNGGA,183748.000,4642.0382,N,00025.0835,E,1,8,2.17,46.9,M,48.3,M,,*7F
$GNRMC,183748.000,A,4642.0382,N,00025.0835,E,84.772,53.92,070124,,,A,V*3C
$GNVTG,53.92,T,,M,84.772,N,157.082,K,A*29
$GNGGA,183749.000,4642.0557,N,00025.1067,E,1,8,2.17,46.8,M,48.3,M,,*7F
$GNRMC,183749.000,A,4642.0557,N,00025.1067,E,84.436,51.80,070124,,,A,V*3F
$GNVTG,51.80,T,,M,84.436,N,156.461,K,A*23
$GNGGA,183750.000,4642.0747,N,00025.1270,E,1,6,2.18,46.3,M,48.3,M,,*7A
$GNRMC,183750.000,A,4642.0747,N,00025.1270,E,83.678,48.99,070124,,,A,V*3F
$GNVTG,48.99,T,,M,83.678,N,155.056,K,A*2F
$GNGGA,183751.000,4642.0913,N,00025.1508,E,1,7,1.26,45.6,M,48.3,M,,*75
$GNRMC,183751.000,A,4642.0913,N,00025.1508,E,84.319,48.50,070124,,,A,V*39
$GNVTG,48.50,T,,M,84.319,N,156.243,K,A*2A
$GNGGA,183752.000,4642.1127,N,00025.1730,E,1,6,1.30,45.2,M,48.3,M,,*73
$GNRMC,183752.000,A,4642.1127,N,00025.1730,E,85.495,45.87,070124,,,A,V*38
$GNVTG,45.87,T,,M,85.495,N,158.421,K,A*23
$GNGGA,183753.000,4642.1315,N,00025.1936,E,1,6,1.43,45.1,M,48.3,M,,*7E
$GNRMC,183753.000,A,4642.1315,N,00025.1936,E,84.794,43.84,070124,,,A,V*34
$GNVTG,43.84,T,,M,84.794,N,157.123,K,A*2D
$GNGGA,183754.000,4642.1535,N,00025.2139,E,1,6,1.43,45.4,M,48.3,M,,*7C
$GNRMC,183754.000,A,4642.1535,N,00025.2139,E,86.428,41.43,070124,,,A,V*3C
$GNVTG,41.43,T,,M,86.428,N,160.152,K,A*20
$GNGGA,183755.000,4642.1778,N,00025.2359,E,1,6,1.30,45.3,M,48.3,M,,*71
$GNRMC,183755.000,A,4642.1778,N,00025.2359,E,88.479,39.30,070124,,,A,V*33
$GNVTG,39.30,T,,M,88.479,N,163.952,K,A*2A
$GNGGA,183756.000,4642.2013,N,00025.2580,E,1,6,1.43,45.2,M,48.3,M,,*7C
$GNRMC,183756.000,A,4642.2013,N,00025.2580,E,90.152,37.79,070124,,,A,V*3D
$GNVTG,37.79,T,,M,90.152,N,167.052,K,A*21
$GNGGA,183757.000,4642.2258,N,00025.2797,E,1,6,1.30,45.1,M,48.3,M,,*73
$GNRMC,183757.000,A,4642.2258,N,00025.2797,E,92.001,36.22,070124,,,A,V*3F
$GNVTG,36.22,T,,M,92.001,N,170.478,K,A*21
$GNGGA,183758.000,4642.2464,N,00025.3017,E,1,5,1.46,45.1,M,48.3,M,,*79
$GNRMC,183758.000,A,4642.2464,N,00025.3017,E,91.969,35.88,070124,,,A,V*30
$GNVTG,35.88,T,,M,91.969,N,170.418,K,A*20
$GNGGA,183759.000,4642.2671,N,00025.3234,E,1,4,1.93,45.1,M,48.3,M,,*74
$GNRMC,183759.000,A,4642.2671,N,00025.3234,E,91.742,35.46,070124,,,A,V*31
$GNVTG,35.46,T,,M,91.742,N,169.997,K,A*27
$GNGGA,183800.000,4642.2880,N,00025.3448,E,1,3,6.46,45.1,M,48.3,M,,*72
$GNRMC,183800.000,A,4642.2880,N,00025.3448,E,91.721,35.24,070124,,,A,V*3E
$GNVTG,35.24,T,,M,91.721,N,169.958,K,A*25
$GNGGA,183801.000,4642.3107,N,00025.3662,E,1,5,1.32,45.4,M,48.3,M,,*79
$GNRMC,183801.000,A,4642.3107,N,00025.3662,E,92.125,33.76,070124,,,A,V*32
$GNVTG,33.76,T,,M,92.125,N,170.707,K,A*29
$GNGGA,183802.000,4642.3321,N,00025.3868,E,1,4,1.36,45.4,M,48.3,M,,*7D
$GNRMC,183802.000,A,4642.3321,N,00025.3868,E,92.123,33.57,070124,,,A,V*36
$GNVTG,33.57,T,,M,92.123,N,170.704,K,A*2F
$GNGGA,183803.000,4642.3531,N,00025.4007,E,1,6,1.30,46.0,M,48.3,M,,*7E
$GNRMC,183803.000,A,4642.3531,N,00025.4007,E,91.617,31.91,070124,,,A,V*3D
$GNVTG,31.91,T,,M,91.617,N,169.766,K,A*28
$GNGGA,183804.000,4642.3775,N,00025.4093,E,1,7,1.26,47.5,M,48.3,M,,*74
$GNRMC,183804.000,A,4642.3775,N,00025.4093,E,90.890,28.54,070124,,,A,V*34
$GNVTG,28.54,T,,M,90.890,N,168.418,K,A*22
$GNGGA,183805.000,4642.4009,N,00025.4163,E,1,7,1.26,48.6,M,48.3,M,,*7C
$GNRMC,183805.000,A,4642.4009,N,00025.4163,E,89.303,25.65,070124,,,A,V*36
$GNVTG,25.65,T,,M,89.303,N,165.479,K,A*2E
$GNGGA,183806.000,4642.4244,N,00025.4241,E,1,7,1.26,49.3,M,48.3,M,,*73
$GNRMC,183806.000,A,4642.4244,N,00025.4241,E,88.845,23.46,070124,,,A,V*32
$GNVTG,23.46,T,,M,88.845,N,164.630,K,A*2F
$GNGGA,183807.000,4642.4477,N,00025.4295,E,1,5,1.74,50.4,M,48.3,M,,*77
$GNRMC,183807.000,A,4642.4477,N,00025.4295,E,87.873,21.16,070124,,,A,V*31
$GNVTG,21.16,T,,M,87.873,N,162.829,K,A*22
$GNGGA,183808.000,4642.4772,N,00025.4279,E,1,4,1.88,51.1,M,48.3,M,,*7A
$GNRMC,183808.000,A,4642.4772,N,00025.4279,E,90.419,15.71,070124,,,A,V*3A
$GNVTG,15.71,T,,M,90.419,N,167.546,K,A*23
$GNGGA,183809.000,4642.5040,N,00025.4358,E,1,5,1.77,52.1,M,48.3,M,,*7C
$GNRMC,183809.000,A,4642.5040,N,00025.4358,E,91.972,15.08,070124,,,A,V*31
$GNVTG,15.08,T,,M,91.972,N,170.425,K,A*2E
$GNGGA,183810.000,4642.5296,N,00025.4453,E,1,4,2.17,51.9,M,48.3,M,,*7E
$GNRMC,183810.000,A,4642.5296,N,00025.4453,E,92.586,14.65,070124,,,A,V*32
$GNVTG,14.65,T,,M,92.586,N,171.563,K,A*22
$GNGGA,183811.000,4642.5549,N,00025.4531,E,1,4,1.81,52.5,M,48.3,M,,*7C
$GNRMC,183811.000,A,4642.5549,N,00025.4531,E,93.230,14.45,070124,,,A,V*3A
$GNVTG,14.45,T,,M,93.230,N,172.755,K,A*2F
$GNGGA,183812.000,4642.5806,N,00025.4605,E,1,4,1.79,53.2,M,48.3,M,,*7C
$GNRMC,183812.000,A,4642.5806,N,00025.4605,E,93.261,13.82,070124,,,A,V*33
$GNVTG,13.82,T,,M,93.261,N,172.813,K,A*2A
$GNGGA,183813.000,4642.6061,N,00025.4674,E,1,4,1.79,53.7,M,48.3,M,,*74
$GNRMC,183813.000,A,4642.6061,N,00025.4674,E,94.113,13.56,070124,,,A,V*36
$GNVTG,13.56,T,,M,94.113,N,174.392,K,A*26
$GNGGA,183814.000,4642.6336,N,00025.4741,E,1,5,1.34,52.0,M,48.3,M,,*7B
$GNRMC,183814.000,A,4642.6336,N,00025.4741,E,94.473,12.71,070124,,,A,V*30
$GNVTG,12.71,T,,M,94.473,N,175.059,K,A*24
$GNGGA,183815.000,4642.6595,N,00025.4811,E,1,6,1.43,51.6,M,48.3,M,,*79
$GNRMC,183815.000,A,4642.6595,N,00025.4811,E,94.460,11.52,070124,,,A,V*34
$GNVTG,11.52,T,,M,94.460,N,175.033,K,A*28
$GNGGA,183816.000,4642.6854,N,00025.4884,E,1,6,1.28,51.8,M,48.3,M,,*75
$GNRMC,183816.000,A,4642.6854,N,00025.4884,E,94.765,10.93,070124,,,A,V*31
$GNVTG,10.93,T,,M,94.765,N,175.600,K,A*24
$GNGGA,183817.000,4642.7111,N,00025.4959,E,1,6,1.43,51.1,M,48.3,M,,*78
$GNRMC,183817.000,A,4642.7111,N,00025.4959,E,94.308,10.21,070124,,,A,V*3E
$GNVTG,10.21,T,,M,94.308,N,174.753,K,A*24
$GNGGA,183818.000,4642.7369,N,00025.5030,E,1,5,3.99,50.7,M,48.3,M,,*7C
$GNRMC,183818.000,A,4642.7369,N,00025.5030,E,94.900,10.13,070124,,,A,V*38
$GNVTG,10.13,T,,M,94.900,N,175.850,K,A*2A
$GNGGA,183819.000,4642.7631,N,00025.5103,E,1,5,2.69,50.6,M,48.3,M,,*7B
$GNRMC,183819.000,A,4642.7631,N,00025.5103,E,96.059,10.12,070124,,,A,V*36
$GNVTG,10.12,T,,M,96.059,N,177.998,K,A*2B
$GNGGA,183820.000,4642.7889,N,00025.5172,E,1,5,3.99,50.1,M,48.3,M,,*73
$GNRMC,183820.000,A,4642.7889,N,00025.5172,E,94.866,9.58,070124,,,A,V*07
$GNVTG,9.58,T,,M,94.866,N,175.787,K,A*19
$GNGGA,183821.000,4642.8147,N,00025.5235,E,1,6,2.72,50.5,M,48.3,M,,*75
$GNRMC,183821.000,A,4642.8147,N,00025.5235,E,94.404,9.94,070124,,,A,V*0A
$GNVTG,9.94,T,,M,94.404,N,174.930,K,A*12
$GNGGA,183822.000,4642.8408,N,00025.5302,E,1,6,2.35,51.0,M,48.3,M,,*7A
$GNRMC,183822.000,A,4642.8408,N,00025.5302,E,94.332,9.26,070124,,,A,V*09
$GNVTG,9.26,T,,M,94.332,N,174.797,K,A*1A
$GNGGA,183823.000,4642.8674,N,00025.5390,E,1,7,1.13,51.5,M,48.3,M,,*7A
$GNRMC,183823.000,A,4642.8674,N,00025.5390,E,95.541,9.68,070124,,,A,V*03
$GNVTG,9.68,T,,M,95.541,N,177.037,K,A*1D
$GNGGA,183824.000,4642.8941,N,00025.5471,E,1,7,1.06,51.9,M,48.3,M,,*74
$GNRMC,183824.000,A,4642.8941,N,00025.5471,E,96.500,9.96,070124,,,A,V*02
$GNVTG,9.96,T,,M,96.500,N,178.814,K,A*1C
$GNGGA,183825.000,4642.9207,N,00025.5539,E,1,6,1.12,52.2,M,48.3,M,,*7C
$GNRMC,183825.000,A,4642.9207,N,00025.5539,E,96.744,9.99,070124,,,A,V*0B
$GNVTG,9.99,T,,M,96.744,N,179.266,K,A*1F
$GNGGA,183826.000,4642.9476,N,00025.5613,E,1,6,1.12,52.4,M,48.3,M,,*72
$GNRMC,183826.000,A,4642.9476,N,00025.5613,E,97.291,10.40,070124,,,A,V*33
$GNVTG,10.40,T,,M,97.291,N,180.281,K,A*20
$GNGGA,183827.000,4642.9742,N,00025.5679,E,1,6,1.12,52.7,M,48.3,M,,*78
$GNRMC,183827.000,A,4642.9742,N,00025.5679,E,97.288,10.33,070124,,,A,V*36
$GNVTG,10.33,T,,M,97.288,N,180.275,K,A*27
$GNGGA,183828.000,4643.0017,N,00025.5752,E,1,6,1.12,52.5,M,48.3,M,,*72
$GNRMC,183828.000,A,4643.0017,N,00025.5752,E,98.363,9.95,070124,,,A,V*01
$GNVTG,9.95,T,,M,98.363,N,182.267,K,A*19
$GNGGA,183829.000,4643.0295,N,00025.5827,E,1,6,1.12,52.2,M,48.3,M,,*71
$GNRMC,183829.000,A,4643.0295,N,00025.5827,E,99.570,10.24,070124,,,A,V*32
$GNVTG,10.24,T,,M,99.570,N,184.504,K,A*2A
$GNGGA,183830.000,4643.0571,N,00025.5892,E,1,6,1.12,51.7,M,48.3,M,,*7C
$GNRMC,183830.000,A,4643.0571,N,00025.5892,E,100.322,10.13,070124,,,A,V*0D
$GNVTG,10.13,T,,M,100.322,N,185.897,K,A*18
$GNGGA,183831.000,4643.0852,N,00025.5960,E,1,6,1.12,51.0,M,48.3,M,,*7A
$GNRMC,183831.000,A,4643.0852,N,00025.5960,E,101.281,10.28,070124,,,A,V*0D
$GNVTG,10.28,T,,M,101.281,N,187.674,K,A*18
$GNGGA,183832.000,4643.1129,N,00025.6033,E,1,5,1.35,50.4,M,48.3,M,,*72
$GNRMC,183832.000,A,4643.1129,N,00025.6033,E,100.675,10.51,070124,,,A,V*06
$GNVTG,10.51,T,,M,100.675,N,186.552,K,A*1E
$GNGGA,183833.000,4643.1405,N,00025.6114,E,1,5,1.35,50.0,M,48.3,M,,*78
$GNRMC,183833.000,A,4643.1405,N,00025.6114,E,100.464,11.08,070124,,,A,V*07
$GNVTG,11.08,T,,M,100.464,N,186.161,K,A*15
$GNGGA,183834.000,4643.1674,N,00025.6211,E,1,6,1.44,49.4,M,48.3,M,,*74
$GNRMC,183834.000,A,4643.1674,N,00025.6211,E,100.403,11.64,070124,,,A,V*09
$GNVTG,11.64,T,,M,100.403,N,186.046,K,A*1A
$GNGGA,183835.000,4643.1942,N,00025.6320,E,1,5,1.61,48.9,M,48.3,M,,*74
$GNRMC,183835.000,A,4643.1942,N,00025.6320,E,100.385,12.54,070124,,,A,V*08
$GNVTG,12.54,T,,M,100.385,N,186.014,K,A*14
$GNGGA,183836.000,4643.2208,N,00025.6456,E,1,7,1.38,48.9,M,48.3,M,,*79
$GNRMC,183836.000,A,4643.2208,N,00025.6456,E,100.385,14.21,070124,,,A,V*0F
$GNVTG,14.21,T,,M,100.385,N,186.014,K,A*10
$GNGGA,183837.000,4643.2478,N,00025.6556,E,1,7,1.22,48.9,M,48.3,M,,*73
$GNRMC,183837.000,A,4643.2478,N,00025.6556,E,100.143,15.12,070124,,,A,V*07
$GNVTG,15.12,T,,M,100.143,N,185.564,K,A*18
$GNGGA,183838.000,4643.2747,N,00025.6661,E,1,8,0.94,48.9,M,48.3,M,,*77
$GNRMC,183838.000,A,4643.2747,N,00025.6661,E,100.213,16.15,070124,,,A,V*02
$GNVTG,16.15,T,,M,100.213,N,185.695,K,A*17
$GNGGA,183839.000,4643.2973,N,00025.6850,E,1,8,0.94,43.7,M,48.3,M,,*76
$GNRMC,183839.000,A,4643.2973,N,00025.6850,E,99.881,19.31,070124,,,A,V*3F
$GNVTG,19.31,T,,M,99.881,N,185.080,K,A*2C
$GNGGA,183840.000,4643.3213,N,00025.7066,E,1,7,1.07,40.8,M,48.3,M,,*70
$GNRMC,183840.000,A,4643.3213,N,00025.7066,E,100.280,22.97,070124,,,A,V*0F
$GNVTG,22.97,T,,M,100.280,N,185.818,K,A*1B
$GNGGA,183841.000,4643.3443,N,00025.7286,E,1,7,1.07,38.5,M,48.3,M,,*7C
$GNRMC,183841.000,A,4643.3443,N,00025.7286,E,101.455,25.91,070124,,,A,V*0F
$GNVTG,25.91,T,,M,101.455,N,187.996,K,A*10
$GNGGA,183842.000,4643.3678,N,00025.7505,E,1,7,0.97,38.7,M,48.3,M,,*73
$GNRMC,183842.000,A,4643.3678,N,00025.7505,E,101.500,27.73,070124,,,A,V*05
$GNVTG,27.73,T,,M,101.500,N,188.080,K,A*1E
$GNGGA,183843.000,4643.3927,N,00025.7696,E,1,7,0.97,38.7,M,48.3,M,,*7E
$GNRMC,183843.000,A,4643.3927,N,00025.7696,E,102.293,27.91,070124,,,A,V*0A
$GNVTG,27.91,T,,M,102.293,N,189.549,K,A*1D
$GNGGA,183844.000,4643.4177,N,00025.7914,E,1,6,1.07,39.1,M,48.3,M,,*78
$GNRMC,183844.000,A,4643.4177,N,00025.7914,E,103.457,29.25,070124,,,A,V*0C
$GNVTG,29.25,T,,M,103.457,N,191.706,K,A*13
$GNGGA,183845.000,4643.4402,N,00025.8146,E,1,6,1.19,38.4,M,48.3,M,,*75
$GNRMC,183845.000,A,4643.4402,N,00025.8146,E,101.988,31.73,070124,,,A,V*0D
$GNVTG,31.73,T,,M,101.988,N,188.984,K,A*18
$GNGGA,183846.000,4643.4629,N,00025.8385,E,1,6,1.19,37.7,M,48.3,M,,*7C
$GNRMC,183846.000,A,4643.4629,N,00025.8385,E,102.006,33.15,070124,,,A,V*06
$GNVTG,33.15,T,,M,102.006,N,189.017,K,A*14
$GNGGA,183847.000,4643.4853,N,00025.8644,E,1,4,1.69,37.6,M,48.3,M,,*72
$GNRMC,183847.000,A,4643.4853,N,00025.8644,E,102.385,34.56,070124,,,A,V*04
$GNVTG,34.56,T,,M,102.385,N,189.720,K,A*1F
$GNGGA,183848.000,4643.5086,N,00025.8891,E,1,4,2.06,37.7,M,48.3,M,,*71
$GNRMC,183848.000,A,4643.5086,N,00025.8891,E,102.917,35.01,070124,,,A,V*0E
$GNVTG,35.01,T,,M,102.917,N,190.706,K,A*11
$GNGGA,183849.000,4643.5320,N,00025.9130,E,1,4,2.06,37.7,M,48.3,M,,*7C
$GNRMC,183849.000,A,4643.5320,N,00025.9130,E,102.935,35.27,070124,,,A,V*07
$GNVTG,35.27,T,,M,102.935,N,190.739,K,A*19
$GNGGA,183850.000,4643.5533,N,00025.9365,E,1,5,1.81,37.6,M,48.3,M,,*7E
$GNRMC,183850.000,A,4643.5533,N,00025.9365,E,102.247,35.54,070124,,,A,V*03
$GNVTG,35.54,T,,M,102.247,N,189.464,K,A*10
$GNGGA,183851.000,4643.5733,N,00025.9629,E,1,6,1.12,37.5,M,48.3,M,,*7A
$GNRMC,183851.000,A,4643.5733,N,00025.9629,E,102.763,37.49,070124,,,A,V*00
$GNVTG,37.49,T,,M,102.763,N,190.419,K,A*1F
$GNGGA,183852.000,4643.5934,N,00025.9900,E,1,6,1.63,37.5,M,48.3,M,,*72
$GNRMC,183852.000,A,4643.5934,N,00025.9900,E,102.281,38.78,070124,,,A,V*0A
$GNVTG,38.78,T,,M,102.281,N,189.526,K,A*1E
$GNGGA,183853.000,4643.6128,N,00026.0174,E,1,6,1.63,37.6,M,48.3,M,,*77
$GNRMC,183853.000,A,4643.6128,N,00026.0174,E,100.476,39.72,070124,,,A,V*0B
$GNVTG,39.72,T,,M,100.476,N,186.182,K,A*1C
$GNGGA,183854.000,4643.6320,N,00026.0454,E,1,6,1.63,37.5,M,48.3,M,,*7E
$GNRMC,183854.000,A,4643.6320,N,00026.0454,E,99.814,40.75,070124,,,A,V*31
$GNVTG,40.75,T,,M,99.814,N,184.955,K,A*2C
$GNGGA,183855.000,4643.6507,N,00026.0743,E,1,5,1.69,37.5,M,48.3,M,,*70
$GNRMC,183855.000,A,4643.6507,N,00026.0743,E,99.264,41.92,070124,,,A,V*33
$GNVTG,41.92,T,,M,99.264,N,183.936,K,A*2B
$GNGGA,183856.000,4643.6663,N,00026.1081,E,1,5,1.69,37.3,M,48.3,M,,*7C
$GNRMC,183856.000,A,4643.6663,N,00026.1081,E,98.958,44.31,070124,,,A,V*30
$GNVTG,44.31,T,,M,98.958,N,183.370,K,A*2A
$GNGGA,183857.000,4643.6852,N,00026.1378,E,1,4,2.06,37.0,M,48.3,M,,*7C
$GNRMC,183857.000,A,4643.6852,N,00026.1378,E,99.134,44.79,070124,,,A,V*37
$GNVTG,44.79,T,,M,99.134,N,183.695,K,A*2B
$GNGGA,183858.000,4643.6949,N,00026.1820,E,1,6,1.81,36.3,M,48.3,M,,*72
$GNRMC,183858.000,A,4643.6949,N,00026.1820,E,99.187,48.55,070124,,,A,V*3F
$GNVTG,48.55,T,,M,99.187,N,183.793,K,A*26
$GNGGA,183859.000,4643.7010,N,00026.2290,E,1,7,1.96,34.7,M,48.3,M,,*74
$GNRMC,183859.000,A,4643.7010,N,00026.2290,E,99.347,52.61,070124,,,A,V*3A
$GNVTG,52.61,T,,M,99.347,N,184.090,K,A*27
$GNGGA,183900.000,4643.7095,N,00026.2731,E,1,10,1.17,34.9,M,48.3,M,,*4B
$GNRMC,183900.000,A,4643.7095,N,00026.2731,E,99.776,55.63,070124,,,A,V*37
$GNVTG,55.63,T,,M,99.776,N,184.886,K,A*2B
$GNGGA,183901.000,4643.7159,N,00026.3190,E,1,12,0.83,37.2,M,48.3,M,,*41
$GNRMC,183901.000,A,4643.7159,N,00026.3190,E,100.497,58.82,070124,,,A,V*04
$GNVTG,58.82,T,,M,100.497,N,186.221,K,A*11
$GNGGA,183902.000,4643.7173,N,00026.3699,E,1,10,0.97,40.0,M,48.3,M,,*41
$GNRMC,183902.000,A,4643.7173,N,00026.3699,E,100.443,63.48,070124,,,A,V*06
$GNVTG,63.48,T,,M,100.443,N,186.122,K,A*16
$GNGGA,183903.000,4643.7249,N,00026.4113,E,1,10,0.93,42.1,M,48.3,M,,*4F
$GNRMC,183903.000,A,4643.7249,N,00026.4113,E,99.995,65.56,070124,,,A,V*31
$GNVTG,65.56,T,,M,99.995,N,185.291,K,A*20
$GNGGA,183904.000,4643.7330,N,00026.4532,E,1,10,0.95,44.3,M,48.3,M,,*42
$GNRMC,183904.000,A,4643.7330,N,00026.4532,E,101.681,66.40,070124,,,A,V*00
$GNVTG,66.40,T,,M,101.681,N,188.414,K,A*18
$GNGGA,183905.000,4643.7441,N,00026.4916,E,1,12,0.82,44.4,M,48.3,M,,*4B
$GNRMC,183905.000,A,4643.7441,N,00026.4916,E,102.594,67.15,070124,,,A,V*0F
$GNVTG,67.15,T,,M,102.594,N,190.107,K,A*13
$GNGGA,183906.000,4643.7536,N,00026.5348,E,1,11,0.92,46.9,M,48.3,M,,*44
$GNRMC,183906.000,A,4643.7536,N,00026.5348,E,104.446,67.69,070124,,,A,V*0E
$GNVTG,67.69,T,,M,104.446,N,193.538,K,A*1B
$GNGGA,183907.000,4643.7641,N,00026.5752,E,1,11,0.92,47.8,M,48.3,M,,*49
$GNRMC,183907.000,A,4643.7641,N,00026.5752,E,105.324,69.05,070124,,,A,V*05
$GNVTG,69.05,T,,M,105.324,N,195.165,K,A*17
$GNGGA,183908.000,4643.7735,N,00026.6155,E,1,11,0.91,48.4,M,48.3,M,,*46
$GNRMC,183908.000,A,4643.7735,N,00026.6155,E,102.866,70.52,070124,,,A,V*0A
$GNVTG,70.52,T,,M,102.866,N,190.610,K,A*17
$GNGGA,183909.000,4643.7834,N,00026.6563,E,1,12,0.86,48.9,M,48.3,M,,*40
$GNRMC,183909.000,A,4643.7834,N,00026.6563,E,106.395,70.04,070124,,,A,V*04
$GNVTG,70.04,T,,M,106.395,N,197.151,K,A*12
$GNGGA,183910.000,4643.7934,N,00026.6987,E,1,11,0.91,48.8,M,48.3,M,,*4B
$GNRMC,183910.000,A,4643.7934,N,00026.6987,E,106.378,68.05,070124,,,A,V*00
$GNVTG,68.05,T,,M,106.378,N,197.118,K,A*14
$GNGGA,183911.000,4643.8038,N,00026.7396,E,1,11,0.98,48.7,M,48.3,M,,*4D
$GNRMC,183911.000,A,4643.8038,N,00026.7396,E,104.337,68.94,070124,,,A,V*01
$GNVTG,68.94,T,,M,104.337,N,193.337,K,A*1E
$GNGGA,183912.000,4643.8139,N,00026.7817,E,1,12,0.97,50.0,M,48.3,M,,*4E
$GNRMC,183912.000,A,4643.8139,N,00026.7817,E,107.225,69.60,070124,,,A,V*0B
$GNVTG,69.60,T,,M,107.225,N,198.689,K,A*1E
$GNGGA,183913.000,4643.8242,N,00026.8233,E,1,11,0.99,50.5,M,48.3,M,,*4B
$GNRMC,183913.000,A,4643.8242,N,00026.8233,E,103.673,68.76,070124,,,A,V*03
$GNVTG,68.76,T,,M,103.673,N,192.105,K,A*12
$GNGGA,183914.000,4643.8347,N,00026.8646,E,1,11,0.99,51.4,M,48.3,M,,*4E
$GNRMC,183914.000,A,4643.8347,N,00026.8646,E,104.617,68.68,070124,,,A,V*0C
$GNVTG,68.68,T,,M,104.617,N,193.856,K,A*16
$GNGGA,183915.000,4643.8458,N,00026.9066,E,1,12,0.93,51.1,M,48.3,M,,*4F
$GNRMC,183915.000,A,4643.8458,N,00026.9066,E,107.204,68.96,070124,,,A,V*05
$GNVTG,68.96,T,,M,107.204,N,198.649,K,A*19
$GNGGA,183916.000,4643.8558,N,00026.9481,E,1,13,0.81,51.4,M,48.3,M,,*47
$GNRMC,183916.000,A,4643.8558,N,00026.9481,E,105.592,69.28,070124,,,A,V*04
$GNVTG,69.28,T,,M,105.592,N,195.662,K,A*13
$GNGGA,183917.000,4643.8658,N,00026.9880,E,1,12,0.86,51.0,M,48.3,M,,*4A
$GNRMC,183917.000,A,4643.8658,N,00026.9880,E,103.476,69.13,070124,,,A,V*0E
$GNVTG,69.13,T,,M,103.476,N,191.740,K,A*13
$GNGGA,183918.000,4643.8756,N,00027.0281,E,1,12,0.86,51.2,M,48.3,M,,*4B
$GNRMC,183918.000,A,4643.8756,N,00027.0281,E,105.139,69.57,070124,,,A,V*05
$GNVTG,69.57,T,,M,105.139,N,194.823,K,A*14
$GNGGA,183919.000,4643.8856,N,00027.0691,E,1,11,0.91,49.7,M,48.3,M,,*49
$GNRMC,183919.000,A,4643.8856,N,00027.0691,E,106.830,70.14,070124,,,A,V*02
$GNVTG,70.14,T,,M,106.830,N,197.956,K,A*18
$GNGGA,183920.000,4643.8958,N,00027.1113,E,1,9,1.02,49.6,M,48.3,M,,*73
$GNRMC,183920.000,A,4643.8958,N,00027.1113,E,108.502,69.54,070124,,,A,V*05
$GNVTG,69.54,T,,M,108.502,N,201.055,K,A*10
$GNGGA,183921.000,4643.9060,N,00027.1531,E,1,9,1.02,49.9,M,48.3,M,,*7A
$GNRMC,183921.000,A,4643.9060,N,00027.1531,E,106.074,68.73,070124,,,A,V*0D
$GNVTG,68.73,T,,M,106.074,N,196.555,K,A*16
$GNGGA,183922.000,4643.9165,N,00027.1960,E,1,9,1.02,52.1,M,48.3,M,,*77
$GNRMC,183922.000,A,4643.9165,N,00027.1960,E,108.078,69.04,070124,,,A,V*01
$GNVTG,69.04,T,,M,108.078,N,200.268,K,A*10
$GNGGA,183923.000,4643.9277,N,00027.2362,E,1,8,1.04,52.7,M,48.3,M,,*7C
$GNRMC,183923.000,A,4643.9277,N,00027.2362,E,104.495,68.78,070124,,,A,V*0A
$GNVTG,68.78,T,,M,104.495,N,193.628,K,A*18
$GNGGA,183924.000,4643.9381,N,00027.2769,E,1,9,1.02,51.6,M,48.3,M,,*79
$GNRMC,183924.000,A,4643.9381,N,00027.2769,E,107.120,69.48,070124,,,A,V*00
$GNVTG,69.48,T,,M,107.120,N,198.493,K,A*1B
$GNGGA,183925.000,4643.9482,N,00027.3179,E,1,10,0.98,51.9,M,48.3,M,,*4F
$GNRMC,183925.000,A,4643.9482,N,00027.3179,E,108.385,69.03,070124,,,A,V*0E
$GNVTG,69.03,T,,M,108.385,N,200.837,K,A*16
$GNGGA,183926.000,4643.9587,N,00027.3579,E,1,10,0.98,53.1,M,48.3,M,,*46
$GNRMC,183926.000,A,4643.9587,N,00027.3579,E,106.451,70.37,070124,,,A,V*02
$GNVTG,70.37,T,,M,106.451,N,197.254,K,A*1B
$GNGGA,183927.000,4643.9688,N,00027.3962,E,1,10,0.98,51.2,M,48.3,M,,*4C
$GNRMC,183927.000,A,4643.9688,N,00027.3962,E,105.906,69.00,070124,,,A,V*09
$GNVTG,69.00,T,,M,105.906,N,196.244,K,A*1B
$GNGGA,183928.000,4643.9791,N,00027.4353,E,1,9,1.00,50.7,M,48.3,M,,*79
$GNRMC,183928.000,A,4643.9791,N,00027.4353,E,104.298,69.32,070124,,,A,V*0C
$GNVTG,69.32,T,,M,104.298,N,193.265,K,A*11
$GNGGA,183929.000,4643.9892,N,00027.4741,E,1,8,1.46,51.7,M,48.3,M,,*71
$GNRMC,183929.000,A,4643.9892,N,00027.4741,E,104.280,69.15,070124,,,A,V*0A
$GNVTG,69.15,T,,M,104.280,N,193.231,K,A*1C
$GNGGA,183930.000,4643.9995,N,00027.5136,E,1,8,1.46,53.6,M,48.3,M,,*7B
$GNRMC,183930.000,A,4643.9995,N,00027.5136,E,105.173,68.68,070124,,,A,V*06
$GNVTG,68.68,T,,M,105.173,N,194.885,K,A*1B
$GNGGA,183931.000,4644.0097,N,00027.5523,E,1,8,1.46,54.5,M,48.3,M,,*7B
$GNRMC,183931.000,A,4644.0097,N,00027.5523,E,100.174,68.89,070124,,,A,V*0F
$GNVTG,68.89,T,,M,100.174,N,185.622,K,A*15
$GNGGA,183932.000,4644.0197,N,00027.5908,E,1,7,1.59,56.6,M,48.3,M,,*7C
$GNRMC,183932.000,A,4644.0197,N,00027.5908,E,103.007,68.49,070124,,,A,V*02
$GNVTG,68.49,T,,M,103.007,N,190.872,K,A*10
$GNGGA,183933.000,4644.0292,N,00027.6300,E,1,6,2.24,60.2,M,48.3,M,,*73
$GNRMC,183933.000,A,4644.0292,N,00027.6300,E,103.224,69.22,070124,,,A,V*0B
$GNVTG,69.22,T,,M,103.224,N,191.274,K,A*12
$GNGGA,183934.000,4644.0382,N,00027.6709,E,1,6,2.24,64.1,M,48.3,M,,*7E
$GNRMC,183934.000,A,4644.0382,N,00027.6709,E,102.939,69.67,070124,,,A,V*06
$GNVTG,69.67,T,,M,102.939,N,190.746,K,A*10
$GNGGA,183935.000,4644.0477,N,00027.7108,E,1,5,2.31,67.2,M,48.2,M,,*72
$GNRMC,183935.000,A,4644.0477,N,00027.7108,E,103.617,70.57,070124,,,A,V*05
$GNVTG,70.57,T,,M,103.617,N,192.002,K,A*1C
$GNGGA,183936.000,4644.0571,N,00027.7506,E,1,5,2.31,70.0,M,48.2,M,,*78
$GNRMC,183936.000,A,4644.0571,N,00027.7506,E,104.118,70.63,070124,,,A,V*03
$GNVTG,70.63,T,,M,104.118,N,192.931,K,A*1D
$GNGGA,183937.000,4644.0662,N,00027.7909,E,1,5,2.31,74.3,M,48.2,M,,*7C
$GNRMC,183937.000,A,4644.0662,N,00027.7909,E,103.483,71.51,070124,,,A,V*00
$GNVTG,71.51,T,,M,103.483,N,191.755,K,A*12
$GNGGA,183938.000,4644.0741,N,00027.8311,E,1,4,2.49,78.5,M,48.2,M,,*7B
$GNRMC,183938.000,A,4644.0741,N,00027.8311,E,106.636,72.34,070124,,,A,V*0A
$GNVTG,72.34,T,,M,106.636,N,197.597,K,A*11
$GNGGA,183939.000,4644.0836,N,00027.8714,E,1,4,2.49,81.7,M,48.2,M,,*70
$GNRMC,183939.000,A,4644.0836,N,00027.8714,E,105.454,70.43,070124,,,A,V*02
$GNVTG,70.43,T,,M,105.454,N,195.405,K,A*1E
$GNGGA,183940.000,4644.0940,N,00027.9121,E,1,3,25.90,84.3,M,48.2,M,,*48
$GNRMC,183940.000,A,4644.0940,N,00027.9121,E,107.092,69.53,070124,,,A,V*08
$GNVTG,69.53,T,,M,107.092,N,198.441,K,A*16
$GNGGA,183941.000,4644.1048,N,00027.9521,E,1,3,25.91,86.9,M,48.2,M,,*44
$GNRMC,183941.000,A,4644.1048,N,00027.9521,E,106.805,68.19,070124,,,A,V*05
$GNVTG,68.19,T,,M,106.805,N,197.910,K,A*18
$GNGGA,183942.000,4644.1155,N,00027.9910,E,1,4,2.49,89.6,M,48.2,M,,*73
$GNRMC,183942.000,A,4644.1155,N,00027.9910,E,103.991,67.52,070124,,,A,V*0C
$GNVTG,67.52,T,,M,103.991,N,192.695,K,A*16
$GNGGA,183943.000,4644.1277,N,00028.0316,E,1,5,1.57,93.0,M,48.2,M,,*7B
$GNRMC,183943.000,A,4644.1277,N,00028.0316,E,105.309,66.42,070124,,,A,V*09
$GNVTG,66.42,T,,M,105.309,N,195.138,K,A*1C
$GNGGA,183944.000,4644.1407,N,00028.0722,E,1,7,1.13,94.1,M,48.2,M,,*7A
$GNRMC,183944.000,A,4644.1407,N,00028.0722,E,106.155,65.40,070124,,,A,V*05
$GNVTG,65.40,T,,M,106.155,N,196.706,K,A*1D
$GNGGA,183945.000,4644.1538,N,00028.1104,E,1,6,1.26,91.5,M,48.2,M,,*73
$GNRMC,183945.000,A,4644.1538,N,00028.1104,E,106.613,63.89,070124,,,A,V*0C
$GNVTG,63.89,T,,M,106.613,N,197.554,K,A*1F
$GNGGA,183946.000,4644.1668,N,00028.1486,E,1,4,2.50,93.9,M,48.2,M,,*77
$GNRMC,183946.000,A,4644.1668,N,00028.1486,E,103.135,64.67,070124,,,A,V*07
$GNVTG,64.67,T,,M,103.135,N,191.109,K,A*14
$GNGGA,183947.000,4644.1795,N,00028.1868,E,1,4,2.50,96.2,M,48.2,M,,*77
$GNRMC,183947.000,A,4644.1795,N,00028.1868,E,103.855,64.10,070124,,,A,V*06
$GNVTG,64.10,T,,M,103.855,N,192.442,K,A*12
$GNGGA,184130.690,,,,,0,0,,,M,,M,,*56
$GNRMC,184130.690,V,,,,,,,070124,,,N,V*29
$GNVTG,0.00,T,,M,0.000,N,0.000,K,N*2C
$GNGGA,184131.190,,,,,0,0,,,M,,M,,*50
$GNRMC,184131.190,V,,,,,,,070124,,,N,V*2F
$GNVTG,0.00,T,,M,0.000,N,0.000,K,N*2C
$GNGGA,184131.690,,,,,0,0,,,M,,M,,*57
$GNRMC,184131.690,V,,,,,,,070124,,,N,V*28
$GNVTG,0.00,T,,M,0.000,N,0.000,K,N*2C
$GNGGA,184132.190,,,,,0,0,,,M,,M,,*53
$GNRMC,184132.190,V,,,,,,,070124,,,N,V*2C
$GNVTG,0.00,T,,M,0.000,N,0.000,K,N*2C
$GNGGA,184132.690,,,,,0,0,,,M,,M,,*54
$GNRMC,184132.690,V,,,,,,,070124,,,N,V*2B
$GNVTG,0.00,T,,M,0.000,N,0.000,K,N*2C
$GNGGA,184135.038,,,,,0,0,,,M,,M,,*57
$GNRMC,184135.038,V,,,,,,,070124,,,N,V*28
$GNVTG,0.00,T,,M,0.000,N,0.000,K,N*2C
$GNGGA,184135.538,,,,,0,0,,,M,,M,,*52
$GNRMC,184135.538,V,,,,,,,070124,,,N,V*2D
$GNVTG,0.00,T,,M,0.000,N,0.000,K,N*2C
$GNGGA,184136.038,,,,,0,0,,,M,,M,,*54
$GNRMC,184136.038,V,,,,,,,070124,,,N,V*2B
$GNVTG,0.00,T,,M,0.000,N,0.000,K,N*2C
$GNGGA,184136.538,,,,,0,0,,,M,,M,,*51
$GNRMC,184136.538,V,,,,,,,070124,,,N,V*2E
$GNVTG,0.00,T,,M,0.000,N,0.000,K,N*2C
$GNGGA,184137.038,,,,,0,0,,,M,,M,,*55
$GNRMC,184137.038,V,,,,,,,070124,,,N,V*2A
$GNVTG,0.00,T,,M,0.000,N,0.000,K,N*2C
$GNGGA,184137.538,,,,,0,0,,,M,,M,,*50
$GNRMC,184137.538,V,,,,,,,070124,,,N,V*2F
$GNVTG,0.00,T,,M,0.000,N,0.000,K,N*2C
$GNGGA,184138.038,,,,,0,0,,,M,,M,,*5A
$GNRMC,184138.038,V,,,,,,,070124,,,N,V*25
$GNVTG,0.00,T,,M,0.000,N,0.000,K,N*2C
$GNGGA,184138.538,,,,,0,0,,,M,,M,,*5F
$GNRMC,184138.538,V,,,,,,,070124,,,N,V*20
$GNVTG,0.00,T,,M,0.000,N,0.000,K,N*2C
$GNGGA,184139.538,,,,,0,0,,,M,,M,,*5E
$GNRMC,184139.538,V,,,,,,,070124,,,N,V*21
$GNVTG,0.00,T,,M,0.000,N,0.000,K,N*2C
$GNGGA,184140.538,,,,,0,0,,,M,,M,,*50
$GNRMC,184140.538,V,,,,,,,070124,,,N,V*2F
$GNVTG,0.00,T,,M,0.000,N,0.000,K,N*2C
$GNGGA,184141.538,,,,,0,0,,,M,,M,,*51
$GNRMC,184141.538,V,,,,,,,070124,,,N,V*2E
$GNVTG,0.00,T,,M,0.000,N,0.000,K,N*2C
$GNGGA,184142.538,,,,,0,0,,,M,,M,,*52
$GNRMC,184142.538,V,,,,,,,070124,,,N,V*2D
$GNVTG,0.00,T,,M,0.000,N,0.000,K,N*2C
$GNGGA,184143.538,,,,,0,0,,,M,,M,,*53
$GNRMC,184143.538,V,,,,,,,070124,,,N,V*2C
$GNVTG,0.00,T,,M,0.000,N,0.000,K,N*2C
$GNGGA,184144.538,,,,,0,0,,,M,,M,,*54
$GNRMC,184144.538,V,,,,,,,070124,,,N,V*2B
$GNVTG,0.00,T,,M,0.000,N,0.000,K,N*2C
$GNGGA,184145.538,,,,,0,0,,,M,,M,,*55
$GNRMC,184145.538,V,,,,,,,070124,,,N,V*2A
$GNVTG,0.00,T,,M,0.000,N,0.000,K,N*2C
$GNGGA,184146.538,,,,,0,0,,,M,,M,,*56
$GNRMC,184146.538,V,,,,,,,070124,,,N,V*29
$GNVTG,0.00,T,,M,0.000,N,0.000,K,N*2C
$GNGGA,184147.538,,,,,0,0,,,M,,M,,*57
$GNRMC,184147.538,V,,,,,,,070124,,,N,V*28
$GNVTG,0.00,T,,M,0.000,N,0.000,K,N*2C
$GNGGA,184148.538,,,,,0,0,,,M,,M,,*58
$GNRMC,184148.538,V,,,,,,,070124,,,N,V*27
$GNVTG,0.00,T,,M,0.000,N,0.000,K,N*2C
$GNGGA,184149.538,,,,,0,0,,,M,,M,,*59
$GNRMC,184149.538,V,,,,,,,070124,,,N,V*26
$GNVTG,0.00,T,,M,0.000,N,0.000,K,N*2C
$GNGGA,184150.538,,,,,0,0,,,M,,M,,*51
$GNRMC,184150.538,V,,,,,,,070124,,,N,V*2E
$GNVTG,0.00,T,,M,0.000,N,0.000,K,N*2C
$GNGGA,184151.538,,,,,0,0,,,M,,M,,*50
$GNRMC,184151.538,V,,,,,,,070124,,,N,V*2F
$GNVTG,0.00,T,,M,0.000,N,0.000,K,N*2C
$GNGGA,184152.538,,,,,0,0,,,M,,M,,*53
$GNRMC,184152.538,V,,,,,,,070124,,,N,V*2C
$GNVTG,0.00,T,,M,0.000,N,0.000,K,N*2C
$GNGGA,184153.538,,,,,0,0,,,M,,M,,*52
$GNRMC,184153.538,V,,,,,,,070124,,,N,V*2D
$GNVTG,0.00,T,,M,0.000,N,0.000,K,N*2C
$GNGGA,184154.538,,,,,0,0,,,M,,M,,*55
$GNRMC,184154.538,V,,,,,,,070124,,,N,V*2A
$GNVTG,0.00,T,,M,0.000,N,0.000,K,N*2C
$GNGGA,184155.538,,,,,0,0,,,M,,M,,*54
$GNRMC,184155.538,V,,,,,,,070124,,,N,V*2B
$GNVTG,0.00,T,,M,0.000,N,0.000,K,N*2C
$GNGGA,184156.538,,,,,0,0,,,M,,M,,*57
$GNRMC,184156.538,V,,,,,,,070124,,,N,V*28
$GNVTG,0.00,T,,M,0.000,N,0.000,K,N*2C
$GNGGA,184157.538,,,,,0,0,,,M,,M,,*56
$GNRMC,184157.538,V,,,,,,,070124,,,N,V*29
$GNVTG,0.00,T,,M,0.000,N,0.000,K,N*2C
$GNGGA,184158.538,,,,,0,0,,,M,,M,,*59
$GNRMC,184158.538,V,,,,,,,070124,,,N,V*26
$GNVTG,0.00,T,,M,0.000,N,0.000,K,N*2C
$GNGGA,184159.538,,,,,0,0,,,M,,M,,*58
$GNRMC,184159.538,V,,,,,,,070124,,,N,V*27
$GNVTG,0.00,T,,M,0.000,N,0.000,K,N*2C
$GNGGA,184200.538,,,,,0,0,,,M,,M,,*57
$GNRMC,184200.538,V,,,,,,,070124,,,N,V*28
$GNVTG,0.00,T,,M,0.000,N,0.000,K,N*2C
$GNGGA,184201.538,,,,,0,0,,,M,,M,,*56
$GNRMC,184201.538,V,,,,,,,070124,,,N,V*29
$GNVTG,0.00,T,,M,0.000,N,0.000,K,N*2C
$GNGGA,184202.538,,,,,0,0,,,M,,M,,*55
$GNRMC,184202.538,V,,,,,,,070124,,,N,V*2A
$GNVTG,0.00,T,,M,0.000,N,0.000,K,N*2C
$GNGGA,184203.538,,,,,0,0,,,M,,M,,*54
$GNRMC,184203.538,V,,,,,,,070124,,,N,V*2B
$GNVTG,0.00,T,,M,0.000,N,0.000,K,N*2C
$GNGGA,184204.538,,,,,0,0,,,M,,M,,*53
$GNRMC,184204.538,V,,,,,,,070124,,,N,V*2C
$GNVTG,0.00,T,,M,0.000,N,0.000,K,N*2C
$GNGGA,184205.538,,,,,0,0,,,M,,M,,*52
$GNRMC,184205.538,V,,,,,,,070124,,,N,V*2D
$GNVTG,0.00,T,,M,0.000,N,0.000,K,N*2C
$GNGGA,184206.538,,,,,0,0,,,M,,M,,*51
$GNRMC,184206.538,V,,,,,,,070124,,,N,V*2E
$GNVTG,0.00,T,,M,0.000,N,0.000,K,N*2C
$GNGGA,184207.538,,,,,0,0,,,M,,M,,*50
$GNRMC,184207.538,V,,,,,,,070124,,,N,V*2F
$GNVTG,0.00,T,,M,0.000,N,0.000,K,N*2C
$GNGGA,184208.538,,,,,0,0,,,M,,M,,*5F
$GNRMC,184208.538,V,,,,,,,070124,,,N,V*20
$GNVTG,0.00,T,,M,0.000,N,0.000,K,N*2C
$GNGGA,184209.538,,,,,0,0,,,M,,M,,*5E
$GNRMC,184209.538,V,,,,,,,070124,,,N,V*21
$GNVTG,0.00,T,,M,0.000,N,0.000,K,N*2C
$GNGGA,184210.538,,,,,0,0,,,M,,M,,*56
$GNRMC,184210.538,V,,,,,,,070124,,,N,V*29
$GNVTG,0.00,T,,M,0.000,N,0.000,K,N*2C
$GNGGA,184211.538,,,,,0,0,,,M,,M,,*57
$GNRMC,184211.538,V,,,,,,,070124,,,N,V*28
$GNVTG,0.00,T,,M,0.000,N,0.000,K,N*2C
$GNGGA,184212.538,,,,,0,0,,,M,,M,,*54
$GNRMC,184212.538,V,,,,,,,070124,,,N,V*2B
$GNVTG,0.00,T,,M,0.000,N,0.000,K,N*2C
$GNGGA,184213.538,,,,,0,0,,,M,,M,,*55
$GNRMC,184213.538,V,,,,,,,070124,,,N,V*2A
$GNVTG,0.00,T,,M,0.000,N,0.000,K,N*2C
$GNGGA,184214.538,,,,,0,0,,,M,,M,,*52
$GNRMC,184214.538,V,,,,,,,070124,,,N,V*2D
$GNVTG,0.00,T,,M,0.000,N,0.000,K,N*2C
$GNGGA,184215.538,,,,,0,0,,,M,,M,,*53
$GNRMC,184215.538,V,,,,,,,070124,,,N,V*2C
$GNVTG,0.00,T,,M,0.000,N,0.000,K,N*2C
$GNGGA,184216.538,,,,,0,0,,,M,,M,,*50
$GNRMC,184216.538,V,,,,,,,070124,,,N,V*2F
$GNVTG,0.00,T,,M,0.000,N,0.000,K,N*2C
$GNGGA,184217.538,,,,,0,0,,,M,,M,,*51
$GNRMC,184217.538,V,,,,,,,070124,,,N,V*2E
$GNVTG,0.00,T,,M,0.000,N,0.000,K,N*2C
$GNGGA,184218.538,,,,,0,0,,,M,,M,,*5E
$GNRMC,184218.538,V,,,,,,,070124,,,N,V*21
$GNVTG,0.00,T,,M,0.000,N,0.000,K,N*2C
$GNGGA,184219.538,,,,,0,0,,,M,,M,,*5F
$GNRMC,184219.538,V,,,,,,,070124,,,N,V*20
$GNVTG,0.00,T,,M,0.000,N,0.000,K,N*2C
$GNGGA,184220.538,,,,,0,0,,,M,,M,,*55
$GNRMC,184220.538,V,,,,,,,070124,,,N,V*2A
$GNVTG,0.00,T,,M,0.000,N,0.000,K,N*2C
$GNGGA,184221.538,,,,,0,0,,,M,,M,,*54
$GNRMC,184221.538,V,,,,,,,070124,,,N,V*2B
$GNVTG,0.00,T,,M,0.000,N,0.000,K,N*2C
$GNGGA,184222.538,,,,,0,0,,,M,,M,,*57
$GNRMC,184222.538,V,,,,,,,070124,,,N,V*28
$GNVTG,0.00,T,,M,0.000,N,0.000,K,N*2C
$GNGGA,184223.538,,,,,0,0,,,M,,M,,*56
$GNRMC,184223.538,V,,,,,,,070124,,,N,V*29
$GNVTG,0.00,T,,M,0.000,N,0.000,K,N*2C
$GNGGA,184224.538,,,,,0,0,,,M,,M,,*51
$GNRMC,184224.538,V,,,,,,,070124,,,N,V*2E
$GNVTG,0.00,T,,M,0.000,N,0.000,K,N*2C
$GNGGA,184225.538,,,,,0,0,,,M,,M,,*50
$GNRMC,184225.538,V,,,,,,,070124,,,N,V*2F
$GNVTG,0.00,T,,M,0.000,N,0.000,K,N*2C
$GNGGA,184226.538,,,,,0,0,,,M,,M,,*53
$GNRMC,184226.538,V,,,,,,,070124,,,N,V*2C
$GNVTG,0.00,T,,M,0.000,N,0.000,K,N*2C
$GNGGA,184227.538,,,,,0,0,,,M,,M,,*52
$GNRMC,184227.538,V,,,,,,,070124,,,N,V*2D
$GNVTG,0.00,T,,M,0.000,N,0.000,K,N*2C
$GNGGA,184228.538,,,,,0,0,,,M,,M,,*5D
$GNRMC,184228.538,V,,,,,,,070124,,,N,V*22
$GNVTG,0.00,T,,M,0.000,N,0.000,K,N*2C
$GNGGA,184229.538,,,,,0,0,,,M,,M,,*5C
$GNRMC,184229.538,V,,,,,,,070124,,,N,V*23
$GNVTG,0.00,T,,M,0.000,N,0.000,K,N*2C
$GNGGA,184230.538,,,,,0,0,,,M,,M,,*54
$GNRMC,184230.538,V,,,,,,,070124,,,N,V*2B
$GNVTG,0.00,T,,M,0.000,N,0.000,K,N*2C
$GNGGA,184231.538,,,,,0,0,,,M,,M,,*55
$GNRMC,184231.538,V,,,,,,,070124,,,N,V*2A
$GNVTG,0.00,T,,M,0.000,N,0.000,K,N*2C
$GNGGA,184232.538,,,,,0,0,,,M,,M,,*56
$GNRMC,184232.538,V,,,,,,,070124,,,N,V*29
$GNVTG,0.00,T,,M,0.000,N,0.000,K,N*2C
$GNGGA,184233.538,,,,,0,0,,,M,,M,,*57
$GNRMC,184233.538,V,,,,,,,070124,,,N,V*28
$GNVTG,0.00,T,,M,0.000,N,0.000,K,N*2C
$GNGGA,184234.538,,,,,0,0,,,M,,M,,*50
$GNRMC,184234.538,V,,,,,,,070124,,,N,V*2F
$GNVTG,0.00,T,,M,0.000,N,0.000,K,N*2C
$GNGGA,184235.538,,,,,0,0,,,M,,M,,*51
$GNRMC,184235.538,V,,,,,,,070124,,,N,V*2E
$GNVTG,0.00,T,,M,0.000,N,0.000,K,N*2C
$GNGGA,184236.538,,,,,0,0,,,M,,M,,*52
$GNRMC,184236.538,V,,,,,,,070124,,,N,V*2D
$GNVTG,0.00,T,,M,0.000,N,0.000,K,N*2C
$GNGGA,184237.538,,,,,0,0,,,M,,M,,*53
$GNRMC,184237.538,V,,,,,,,070124,,,N,V*2C
$GNVTG,0.00,T,,M,0.000,N,0.000,K,N*2C
$GNGGA,184238.538,,,,,0,0,,,M,,M,,*5C
$GNRMC,184238.538,V,,,,,,,070124,,,N,V*23
$GNVTG,0.00,T,,M,0.000,N,0.000,K,N*2C
$GNGGA,184239.538,,,,,0,0,,,M,,M,,*5D
$GNRMC,184239.538,V,,,,,,,070124,,,N,V*22
$GNVTG,0.00,T,,M,0.000,N,0.000,K,N*2C
$GNGGA,184240.538,,,,,0,0,,,M,,M,,*53
$GNRMC,184240.538,V,,,,,,,070124,,,N,V*2C
$GNVTG,0.00,T,,M,0.000,N,0.000,K,N*2C
$GNGGA,184241.538,,,,,0,0,,,M,,M,,*52
$GNRMC,184241.538,V,,,,,,,070124,,,N,V*2D
$GNVTG,0.00,T,,M,0.000,N,0.000,K,N*2C
$GNGGA,184242.538,,,,,0,0,,,M,,M,,*51
$GNRMC,184242.538,V,,,,,,,070124,,,N,V*2E
$GNVTG,0.00,T,,M,0.000,N,0.000,K,N*2C
$GNGGA,184243.538,,,,,0,0,,,M,,M,,*50
$GNRMC,184243.538,V,,,,,,,070124,,,N,V*2F
$GNVTG,0.00,T,,M,0.000,N,0.000,K,N*2C
$GNGGA,184244.538,,,,,0,0,,,M,,M,,*57
$GNRMC,184244.538,V,,,,,,,070124,,,N,V*28
$GNVTG,0.00,T,,M,0.000,N,0.000,K,N*2C
$GNGGA,184245.538,,,,,0,0,,,M,,M,,*56
$GNRMC,184245.538,V,,,,,,,070124,,,N,V*29
$GNVTG,0.00,T,,M,0.000,N,0.000,K,N*2C
$GNGGA,184246.538,,,,,0,0,,,M,,M,,*55
$GNRMC,184246.538,V,,,,,,,070124,,,N,V*2A
$GNVTG,0.00,T,,M,0.000,N,0.000,K,N*2C
$GNGGA,184247.538,,,,,0,0,,,M,,M,,*54
$GNRMC,184247.538,V,,,,,,,070124,,,N,V*2B
$GNVTG,0.00,T,,M,0.000,N,0.000,K,N*2C
$GNGGA,184248.538,,,,,0,0,,,M,,M,,*5B
$GNRMC,184248.538,V,,,,,,,070124,,,N,V*24
$GNVTG,0.00,T,,M,0.000,N,0.000,K,N*2C
$GNGGA,184249.538,,,,,0,0,,,M,,M,,*5A
$GNRMC,184249.538,V,,,,,,,070124,,,N,V*25
$GNVTG,0.00,T,,M,0.000,N,0.000,K,N*2C
$GNGGA,184250.538,,,,,0,0,,,M,,M,,*52
$GNRMC,184250.538,V,,,,,,,070124,,,N,V*2D
$GNVTG,0.00,T,,M,0.000,N,0.000,K,N*2C
$GNGGA,184251.538,,,,,0,0,,,M,,M,,*53
$GNRMC,184251.538,V,,,,,,,070124,,,N,V*2C
$GNVTG,0.00,T,,M,0.000,N,0.000,K,N*2C
$GNGGA,184252.538,,,,,0,0,,,M,,M,,*50
$GNRMC,184252.538,V,,,,,,,070124,,,N,V*2F
$GNVTG,0.00,T,,M,0.000,N,0.000,K,N*2C
$GNGGA,184253.538,,,,,0,0,,,M,,M,,*51
$GNRMC,184253.538,V,,,,,,,070124,,,N,V*2E
$GNVTG,0.00,T,,M,0.000,N,0.000,K,N*2C
$GNGGA,184254.538,,,,,0,0,,,M,,M,,*56
$GNRMC,184254.538,V,,,,,,,070124,,,N,V*29
$GNVTG,0.00,T,,M,0.000,N,0.000,K,N*2C
$GNGGA,184255.538,,,,,0,0,,,M,,M,,*57
$GNRMC,184255.538,V,,,,,,,070124,,,N,V*28
$GNVTG,0.00,T,,M,0.000,N,0.000,K,N*2C
$GNGGA,184256.538,,,,,0,0,,,M,,M,,*54
$GNRMC,184256.538,V,,,,,,,070124,,,N,V*2B
$GNVTG,0.00,T,,M,0.000,N,0.000,K,N*2C
$GNGGA,184257.538,,,,,0,0,,,M,,M,,*55
$GNRMC,184257.538,V,,,,,,,070124,,,N,V*2A
$GNVTG,0.00,T,,M,0.000,N,0.000,K,N*2C
$GNGGA,184258.538,,,,,0,0,,,M,,M,,*5A
$GNRMC,184258.538,V,,,,,,,070124,,,N,V*25
$GNVTG,0.00,T,,M,0.000,N,0.000,K,N*2C
$GNGGA,184259.538,,,,,0,0,,,M,,M,,*5B
$GNRMC,184259.538,V,,,,,,,070124,,,N,V*24
$GNVTG,0.00,T,,M,0.000,N,0.000,K,N*2C
$GNGGA,184300.538,,,,,0,0,,,M,,M,,*56
$GNRMC,184300.538,V,,,,,,,070124,,,N,V*29
$GNVTG,0.00,T,,M,0.000,N,0.000,K,N*2C
$GNGGA,184301.538,,,,,0,0,,,M,,M,,*57
$GNRMC,184301.538,V,,,,,,,070124,,,N,V*28
$GNVTG,0.00,T,,M,0.000,N,0.000,K,N*2C
$GNGGA,184302.538,,,,,0,0,,,M,,M,,*54
$GNRMC,184302.538,V,,,,,,,070124,,,N,V*2B
$GNVTG,0.00,T,,M,0.000,N,0.000,K,N*2C
$GNGGA,184303.538,,,,,0,0,,,M,,M,,*55
$GNRMC,184303.538,V,,,,,,,070124,,,N,V*2A
$GNVTG,0.00,T,,M,0.000,N,0.000,K,N*2C
$GNGGA,184304.538,,,,,0,0,,,M,,M,,*52
$GNRMC,184304.538,V,,,,,,,070124,,,N,V*2D
$GNVTG,0.00,T,,M,0.000,N,0.000,K,N*2C
$GNGGA,184305.538,,,,,0,0,,,M,,M,,*53
$GNRMC,184305.538,V,,,,,,,070124,,,N,V*2C
$GNVTG,0.00,T,,M,0.000,N,0.000,K,N*2C
$GNGGA,184306.538,,,,,0,0,,,M,,M,,*50
$GNRMC,184306.538,V,,,,,,,070124,,,N,V*2F
$GNVTG,0.00,T,,M,0.000,N,0.000,K,N*2C
$GNGGA,184307.538,,,,,0,0,,,M,,M,,*51
$GNRMC,184307.538,V,,,,,,,070124,,,N,V*2E
$GNVTG,0.00,T,,M,0.000,N,0.000,K,N*2C
$GNGGA,184308.538,,,,,0,0,,,M,,M,,*5E
$GNRMC,184308.538,V,,,,,,,070124,,,N,V*21
$GNVTG,0.00,T,,M,0.000,N,0.000,K,N*2C
$GNGGA,184309.538,,,,,0,0,,,M,,M,,*5F
$GNRMC,184309.538,V,,,,,,,070124,,,N,V*20
$GNVTG,0.00,T,,M,0.000,N,0.000,K,N*2C
$GNGGA,184310.538,,,,,0,0,,,M,,M,,*57
$GNRMC,184310.538,V,,,,,,,070124,,,N,V*28
$GNVTG,0.00,T,,M,0.000,N,0.000,K,N*2C
$GNGGA,184311.538,,,,,0,0,,,M,,M,,*56
$GNRMC,184311.538,V,,,,,,,070124,,,N,V*29
$GNVTG,0.00,T,,M,0.000,N,0.000,K,N*2C
$GNGGA,184312.538,,,,,0,0,,,M,,M,,*55
$GNRMC,184312.538,V,,,,,,,070124,,,N,V*2A
$GNVTG,0.00,T,,M,0.000,N,0.000,K,N*2C
$GNGGA,184313.538,,,,,0,0,,,M,,M,,*54
$GNRMC,184313.538,V,,,,,,,070124,,,N,V*2B
$GNVTG,0.00,T,,M,0.000,N,0.000,K,N*2C
$GNGGA,184314.538,,,,,0,0,,,M,,M,,*53
$GNRMC,184314.538,V,,,,,,,070124,,,N,V*2C
$GNVTG,0.00,T,,M,0.000,N,0.000,K,N*2C
$GNGGA,184315.538,,,,,0,0,,,M,,M,,*52
$GNRMC,184315.538,V,,,,,,,070124,,,N,V*2D
$GNVTG,0.00,T,,M,0.000,N,0.000,K,N*2C
$GNGGA,184316.538,,,,,0,0,,,M,,M,,*51
$GNRMC,184316.538,V,,,,,,,070124,,,N,V*2E
$GNVTG,0.00,T,,M,0.000,N,0.000,K,N*2C
$GNGGA,184317.538,,,,,0,0,,,M,,M,,*50
$GNRMC,184317.538,V,,,,,,,070124,,,N,V*2F
$GNVTG,0.00,T,,M,0.000,N,0.000,K,N*2C
$GNGGA,184318.538,,,,,0,0,,,M,,M,,*5F
$GNRMC,184318.538,V,,,,,,,070124,,,N,V*20
$GNVTG,0.00,T,,M,0.000,N,0.000,K,N*2C
$GNGGA,184319.538,,,,,0,0,,,M,,M,,*5E
$GNRMC,184319.538,V,,,,,,,070124,,,N,V*21
$GNVTG,0.00,T,,M,0.000,N,0.000,K,N*2C
$GNGGA,184320.538,,,,,0,0,,,M,,M,,*54
$GNRMC,184320.538,V,,,,,,,070124,,,N,V*2B
$GNVTG,0.00,T,,M,0.000,N,0.000,K,N*2C
$GNGGA,184321.538,,,,,0,0,,,M,,M,,*55
$GNRMC,184321.538,V,,,,,,,070124,,,N,V*2A
$GNVTG,0.00,T,,M,0.000,N,0.000,K,N*2C
$GNGGA,184322.538,,,,,0,0,,,M,,M,,*56
$GNRMC,184322.538,V,,,,,,,070124,,,N,V*29
$GNVTG,0.00,T,,M,0.000,N,0.000,K,N*2C
$GNGGA,184323.538,,,,,0,0,,,M,,M,,*57
$GNRMC,184323.538,V,,,,,,,070124,,,N,V*28
$GNVTG,0.00,T,,M,0.000,N,0.000,K,N*2C
$GNGGA,184324.538,,,,,0,0,,,M,,M,,*50
$GNRMC,184324.538,V,,,,,,,070124,,,N,V*2F
$GNVTG,0.00,T,,M,0.000,N,0.000,K,N*2C
$GNGGA,184325.538,,,,,0,0,,,M,,M,,*51
$GNRMC,184325.538,V,,,,,,,070124,,,N,V*2E
$GNVTG,0.00,T,,M,0.000,N,0.000,K,N*2C
$GNGGA,184326.538,,,,,0,0,,,M,,M,,*52
$GNRMC,184326.538,V,,,,,,,070124,,,N,V*2D
$GNVTG,0.00,T,,M,0.000,N,0.000,K,N*2C
$GNGGA,184327.538,,,,,0,0,,,M,,M,,*53
$GNRMC,184327.538,V,,,,,,,070124,,,N,V*2C
$GNVTG,0.00,T,,M,0.000,N,0.000,K,N*2C
$GNGGA,184328.538,,,,,0,0,,,M,,M,,*5C
$GNRMC,184328.538,V,,,,,,,070124,,,N,V*23
$GNVTG,0.00,T,,M,0.000,N,0.000,K,N*2C
$GNGGA,184329.538,,,,,0,0,,,M,,M,,*5D
$GNRMC,184329.538,V,,,,,,,070124,,,N,V*22
$GNVTG,0.00,T,,M,0.000,N,0.000,K,N*2C
$GNGGA,184330.538,,,,,0,0,,,M,,M,,*55
$GNRMC,184330.538,V,,,,,,,070124,,,N,V*2A
$GNVTG,0.00,T,,M,0.000,N,0.000,K,N*2C
$GNGGA,184331.538,,,,,0,0,,,M,,M,,*54
$GNRMC,184331.538,V,,,,,,,070124,,,N,V*2B
$GNVTG,0.00,T,,M,0.000,N,0.000,K,N*2C
$GNGGA,184332.538,,,,,0,0,,,M,,M,,*57
$GNRMC,184332.538,V,,,,,,,070124,,,N,V*28
$GNVTG,0.00,T,,M,0.000,N,0.000,K,N*2C
$GNGGA,184333.538,,,,,0,0,,,M,,M,,*56
$GNRMC,184333.538,V,,,,,,,070124,,,N,V*29
$GNVTG,0.00,T,,M,0.000,N,0.000,K,N*2C
$GNGGA,184334.538,,,,,0,0,,,M,,M,,*51
$GNRMC,184334.538,V,,,,,,,070124,,,N,V*2E
$GNVTG,0.00,T,,M,0.000,N,0.000,K,N*2C
$GNGGA,184335.538,,,,,0,0,,,M,,M,,*50
$GNRMC,184335.538,V,,,,,,,070124,,,N,V*2F
$GNVTG,0.00,T,,M,0.000,N,0.000,K,N*2C
$GNGGA,184336.538,,,,,0,0,,,M,,M,,*53
$GNRMC,184336.538,V,,,,,,,070124,,,N,V*2C
$GNVTG,0.00,T,,M,0.000,N,0.000,K,N*2C
$GNGGA,184337.538,,,,,0,0,,,M,,M,,*52
$GNRMC,184337.538,V,,,,,,,070124,,,N,V*2D
$GNVTG,0.00,T,,M,0.000,N,0.000,K,N*2C
$GNGGA,184338.538,,,,,0,0,,,M,,M,,*5D
$GNRMC,184338.538,V,,,,,,,070124,,,N,V*22
$GNVTG,0.00,T,,M,0.000,N,0.000,K,N*2C
$GNGGA,184341.323,,,,,0,0,,,M,,M,,*5F
$GNRMC,184341.323,V,,,,,,,070124,,,N,V*20
$GNVTG,0.00,T,,M,0.000,N,0.000,K,N*2C
$GNGGA,184341.823,,,,,0,0,,,M,,M,,*54
$GNRMC,184341.823,V,,,,,,,070124,,,N,V*2B
$GNVTG,0.00,T,,M,0.000,N,0.000,K,N*2C
$GNGGA,184342.323,,,,,0,0,,,M,,M,,*5C
$GNRMC,184342.323,V,,,,,,,070124,,,N,V*23
$GNVTG,0.00,T,,M,0.000,N,0.000,K,N*2C
$GNGGA,184342.823,,,,,0,0,,,M,,M,,*57
$GNRMC,184342.823,V,,,,,,,070124,,,N,V*28
$GNVTG,0.00,T,,M,0.000,N,0.000,K,N*2C
$GNGGA,184343.323,,,,,0,0,,,M,,M,,*5D
$GNRMC,184343.323,V,,,,,,,070124,,,N,V*22
$GNVTG,0.00,T,,M,0.000,N,0.000,K,N*2C
$GNGGA,184343.823,,,,,0,0,,,M,,M,,*56
$GNRMC,184343.823,V,,,,,,,070124,,,N,V*29
$GNVTG,0.00,T,,M,0.000,N,0.000,K,N*2C
$GNGGA,184344.323,,,,,0,0,,,M,,M,,*5A
$GNRMC,184344.323,V,,,,,,,070124,,,N,V*25
$GNVTG,0.00,T,,M,0.000,N,0.000,K,N*2C
$GNGGA,184344.823,,,,,0,0,,,M,,M,,*51
$GNRMC,184344.823,V,,,,,,,070124,,,N,V*2E
$GNVTG,0.00,T,,M,0.000,N,0.000,K,N*2C
$GNGGA,184345.823,,,,,0,0,,,M,,M,,*50
$GNRMC,184345.823,V,,,,,,,070124,,,N,V*2F
$GNVTG,0.00,T,,M,0.000,N,0.000,K,N*2C
$GNGGA,184346.823,,,,,0,0,,,M,,M,,*53
$GNRMC,184346.823,V,,,,,,,070124,,,N,V*2C
$GNVTG,0.00,T,,M,0.000,N,0.000,K,N*2C
$GNGGA,184347.823,,,,,0,0,,,M,,M,,*52
$GNRMC,184347.823,V,,,,,,,070124,,,N,V*2D
$GNVTG,0.00,T,,M,0.000,N,0.000,K,N*2C
$GNGGA,184348.823,,,,,0,0,,,M,,M,,*5D
$GNRMC,184348.823,V,,,,,,,070124,,,N,V*22
$GNVTG,0.00,T,,M,0.000,N,0.000,K,N*2C
$GNGGA,184349.823,,,,,0,0,,,M,,M,,*5C
$GNRMC,184349.823,V,,,,,,,070124,,,N,V*23
$GNVTG,0.00,T,,M,0.000,N,0.000,K,N*2C
$GNGGA,184350.823,,,,,0,0,,,M,,M,,*54
$GNRMC,184350.823,V,,,,,,,070124,,,N,V*2B
$GNVTG,0.00,T,,M,0.000,N,0.000,K,N*2C
$GNGGA,193228.424,,,,,0,0,,,M,,M,,*57
$GNRMC,193228.424,V,,,,,,,070124,,,N,V*28
$GNVTG,0.00,T,,M,0.000,N,0.000,K,N*2C
$GNGGA,193228.924,,,,,0,0,,,M,,M,,*5A
$GNRMC,193228.924,V,,,,,,,070124,,,N,V*25
$GNVTG,0.00,T,,M,0.000,N,0.000,K,N*2C
$GNGGA,193229.424,,,,,0,0,,,M,,M,,*56
$GNRMC,193229.424,V,,,,,,,070124,,,N,V*29
$GNVTG,0.00,T,,M,0.000,N,0.000,K,N*2C
$GNGGA,193229.924,,,,,0,0,,,M,,M,,*5B
$GNRMC,193229.924,V,,,,,,,070124,,,N,V*24
$GNVTG,0.00,T,,M,0.000,N,0.000,K,N*2C
$GNGGA,193230.424,,,,,0,0,,,M,,M,,*5E
$GNRMC,193230.424,V,,,,,,,070124,,,N,V*21
$GNVTG,0.00,T,,M,0.000,N,0.000,K,N*2C
$GNGGA,193230.924,,,,,0,0,,,M,,M,,*53
$GNRMC,193230.924,V,,,,,,,070124,,,N,V*2C
$GNVTG,0.00,T,,M,0.000,N,0.000,K,N*2C
$GNGGA,193231.424,,,,,0,0,,,M,,M,,*5F
$GNRMC,193231.424,V,,,,,,,070124,,,N,V*20
$GNVTG,0.00,T,,M,0.000,N,0.000,K,N*2C
$GNGGA,193231.924,,,,,0,0,,,M,,M,,*52
$GNRMC,193231.924,V,,,,,,,070124,,,N,V*2D
$GNVTG,0.00,T,,M,0.000,N,0.000,K,N*2C
$GNGGA,193232.924,,,,,0,0,,,M,,M,,*51
$GNRMC,193232.924,V,,,,,,,070124,,,N,V*2E
$GNVTG,0.00,T,,M,0.000,N,0.000,K,N*2C
$GNGGA,193233.924,,,,,0,0,,,M,,M,,*50
$GNRMC,193233.924,V,,,,,,,070124,,,N,V*2F
$GNVTG,0.00,T,,M,0.000,N,0.000,K,N*2C
$GNGGA,193234.924,,,,,0,0,,,M,,M,,*57
$GNRMC,193234.924,V,,,,,,,070124,,,N,V*28
$GNVTG,0.00,T,,M,0.000,N,0.000,K,N*2C
$GNGGA,193235.924,,,,,0,0,,,M,,M,,*56
$GNRMC,193235.924,V,,,,,,,070124,,,N,V*29
$GNVTG,0.00,T,,M,0.000,N,0.000,K,N*2C
$GNGGA,193236.924,,,,,0,0,,,M,,M,,*55
$GNRMC,193236.924,V,,,,,,,070124,,,N,V*2A
$GNVTG,0.00,T,,M,0.000,N,0.000,K,N*2C
$GNGGA,193237.924,,,,,0,0,,,M,,M,,*54
$GNRMC,193237.924,V,,,,,,,070124,,,N,V*2B
$GNVTG,0.00,T,,M,0.000,N,0.000,K,N*2C
$GNGGA,193238.924,,,,,0,0,,,M,,M,,*5B
$GNRMC,193238.924,V,,,,,,,070124,,,N,V*24
$GNVTG,0.00,T,,M,0.000,N,0.000,K,N*2C
$GNGGA,193239.924,,,,,0,0,,,M,,M,,*5A
$GNRMC,193239.924,V,,,,,,,070124,,,N,V*25
$GNVTG,0.00,T,,M,0.000,N,0.000,K,N*2C
$GNGGA,193240.924,,,,,0,0,,,M,,M,,*54
$GNRMC,193240.924,V,,,,,,,070124,,,N,V*2B
$GNVTG,0.00,T,,M,0.000,N,0.000,K,N*2C
$GNGGA,193242.102,,,,,0,0,,,M,,M,,*5A
$GNRMC,193242.102,V,,,,,,,070124,,,N,V*25
$GNVTG,0.00,T,,M,0.000,N,0.000,K,N*2C
$GNGGA,193243.085,,,,,0,0,,,M,,M,,*55
$GNRMC,193243.085,V,,,,,,,070124,,,N,V*2A
$GNVTG,0.00,T,,M,0.000,N,0.000,K,N*2C
$GNGGA,193243.958,,,,,0,0,,,M,,M,,*5C
$GNRMC,193243.958,V,,,,,,,070124,,,N,V*23
$GNVTG,0.00,T,,M,0.000,N,0.000,K,N*2C
$GNGGA,193244.929,4648.8523,N,00033.2713,E,1,9,1.20,120.1,M,48.2,M,,*4A
$GNRMC,193244.929,A,4648.8523,N,00033.2713,E,0.000,0.00,070124,,,A,V*34
$GNVTG,0.00,T,,M,0.000,N,0.000,K,A*23
$GNGGA,193245.933,4648.8553,N,00033.2700,E,1,9,1.20,111.4,M,48.2,M,,*42
$GNRMC,193245.933,A,4648.8553,N,00033.2700,E,0.000,0.00,070124,,,A,V*3B
$GNVTG,0.00,T,,M,0.000,N,0.000,K,A*23
$GNGGA,193246.911,4648.8476,N,00033.2724,E,1,9,1.20,91.6,M,48.2,M,,*7A
$GNRMC,193246.911,A,4648.8476,N,00033.2724,E,0.000,0.00,070124,,,A,V*38
$GNVTG,0.00,T,,M,0.000,N,0.000,K,A*23
$GNGGA,193247.920,4648.8468,N,00033.2710,E,1,10,1.19,88.0,M,48.2,M,,*4D
$GNRMC,193247.920,A,4648.8468,N,00033.2710,E,0.000,0.00,070124,,,A,V*33
$GNVTG,0.00,T,,M,0.000,N,0.000,K,A*23
$GNGGA,193248.929,4648.8482,N,00033.2709,E,1,10,1.19,87.7,M,48.2,M,,*4F
$GNRMC,193248.929,A,4648.8482,N,00033.2709,E,0.000,0.00,070124,,,A,V*39
$GNVTG,0.00,T,,M,0.000,N,0.000,K,A*23
$GNGGA,193249.924,4648.8490,N,00033.2672,E,1,11,1.09,59.1,M,48.2,M,,*48
$GNRMC,193249.924,A,4648.8490,N,00033.2672,E,0.000,0.00,070124,,,A,V*3B
$GNVTG,0.00,T,,M,0.000,N,0.000,K,A*23
$GNGGA,193251.000,4648.8490,N,00033.2672,E,1,11,1.09,59.1,M,48.2,M,,*4E
$GNRMC,193251.000,A,4648.8490,N,00033.2672,E,0.000,0.00,070124,,,A,V*3D
$GNVTG,0.00,T,,M,0.000,N,0.000,K,A*23
$GNGGA,193252.000,4648.8500,N,00033.2594,E,1,11,1.09,63.4,M,48.2,M,,*42
$GNRMC,193252.000,A,4648.8500,N,00033.2594,E,0.000,0.00,070124,,,A,V*3D
$GNVTG,0.00,T,,M,0.000,N,0.000,K,A*23
$GNGGA,193253.000,4648.8514,N,00033.2595,E,1,11,1.09,64.0,M,48.2,M,,*44
$GNRMC,193253.000,A,4648.8514,N,00033.2595,E,0.000,0.00,070124,,,A,V*38
$GNVTG,0.00,T,,M,0.000,N,0.000,K,A*23
$GNGGA,193254.000,4648.8522,N,00033.2567,E,1,11,1.09,59.9,M,48.2,M,,*4C
$GNRMC,193254.000,A,4648.8522,N,00033.2567,E,0.000,0.00,070124,,,A,V*37
$GNVTG,0.00,T,,M,0.000,N,0.000,K,A*23
$GNGGA,193255.000,4648.8532,N,00033.2560,E,1,15,0.85,56.5,M,48.2,M,,*49
$GNRMC,193255.000,A,4648.8532,N,00033.2560,E,0.000,0.00,070124,,,A,V*30
$GNVTG,0.00,T,,M,0.000,N,0.000,K,A*23
$GNGGA,193256.000,4648.8535,N,00033.2570,E,1,16,0.84,57.4,M,48.2,M,,*4E
$GNRMC,193256.000,A,4648.8535,N,00033.2570,E,0.000,0.00,070124,,,A,V*35
$GNVTG,0.00,T,,M,0.000,N,0.000,K,A*23
$GNGGA,193257.000,4648.8551,N,00033.2572,E,1,14,0.97,56.1,M,48.2,M,,*4B
$GNRMC,193257.000,A,4648.8551,N,00033.2572,E,0.000,0.00,070124,,,A,V*34
$GNVTG,0.00,T,,M,0.000,N,0.000,K,A*23
$GNGGA,193258.000,4648.8547,N,00033.2566,E,1,14,0.97,58.5,M,48.2,M,,*4C
$GNRMC,193258.000,A,4648.8547,N,00033.2566,E,0.000,0.00,070124,,,A,V*39
$GNVTG,0.00,T,,M,0.000,N,0.000,K,A*23
$GNGGA,193259.000,4648.8552,N,00033.2559,E,1,15,0.96,57.9,M,48.2,M,,*46
$GNRMC,193259.000,A,4648.8552,N,00033.2559,E,0.000,0.00,070124,,,A,V*30
$GNVTG,0.00,T,,M,0.000,N,0.000,K,A*23
$GNGGA,193300.000,4648.8556,N,00033.2548,E,1,15,0.88,54.8,M,48.2,M,,*42
$GNRMC,193300.000,A,4648.8556,N,00033.2548,E,0.000,0.00,070124,,,A,V*39
$GNVTG,0.00,T,,M,0.000,N,0.000,K,A*23
$GNGGA,193301.000,4648.8553,N,00033.2549,E,1,14,0.88,54.9,M,48.2,M,,*47
$GNRMC,193301.000,A,4648.8553,N,00033.2549,E,0.000,0.00,070124,,,A,V*3C
$GNVTG,0.00,T,,M,0.000,N,0.000,K,A*23
$GNGGA,193302.000,4648.8549,N,00033.2550,E,1,15,0.86,55.2,M,48.2,M,,*42
$GNRMC,193302.000,A,4648.8549,N,00033.2550,E,0.000,0.00,070124,,,A,V*3C
$GNVTG,0.00,T,,M,0.000,N,0.000,K,A*23
$GNGGA,193303.000,4648.8546,N,00033.2552,E,1,15,0.86,55.3,M,48.2,M,,*4F
$GNRMC,193303.000,A,4648.8546,N,00033.2552,E,0.000,0.00,070124,,,A,V*30
$GNVTG,0.00,T,,M,0.000,N,0.000,K,A*23
$GNGGA,193304.000,4648.8546,N,00033.2554,E,1,16,0.85,55.5,M,48.2,M,,*48
$GNRMC,193304.000,A,4648.8546,N,00033.2554,E,0.000,0.00,070124,,,A,V*31
$GNVTG,0.00,T,,M,0.000,N,0.000,K,A*23
$GNGGA,193305.000,4648.8548,N,00033.2553,E,1,16,0.85,55.2,M,48.2,M,,*47
$GNRMC,193305.000,A,4648.8548,N,00033.2553,E,0.000,0.00,070124,,,A,V*39
$GNVTG,0.00,T,,M,0.000,N,0.000,K,A*23
$GNGGA,193306.000,4648.8547,N,00033.2547,E,1,18,0.66,55.1,M,48.2,M,,*4E
$GNRMC,193306.000,A,4648.8547,N,00033.2547,E,0.000,0.00,070124,,,A,V*30
$GNVTG,0.00,T,,M,0.000,N,0.000,K,A*23
