$GNGGA,175526.816,4634.9255,N,00019.9743,E,1,4,2.27,45.9,M,48.4,M,,*73
$GNRMC,175526.816,A,4634.9255,N,00019.9743,E,0.046,0.00,070124,,,A,V*3A
$GNVTG,0.00,T,,M,0.046,N,0.085,K,A*2C
$GNGGA,175527.824,4634.9203,N,00019.9635,E,1,7,1.59,75.4,M,48.4,M,,*77
$GNRMC,175527.824,A,4634.9203,N,00019.9635,E,0.071,0.00,070124,,,A,V*3D
$GNVTG,0.00,T,,M,0.071,N,0.132,K,A*25
$GNGGA,175528.820,4634.9203,N,00019.9635,E,1,7,1.59,75.4,M,48.4,M,,*7C
$GNRMC,175528.820,A,4634.9203,N,00019.9635,E,1.081,326.10,070124,,,A,V*3E
$GNVTG,326.10,T,,M,1.081,N,2.003,K,A*2C
$GNGGA,175529.818,4634.9235,N,00019.9593,E,1,8,1.54,93.3,M,48.4,M,,*71
$GNRMC,175529.818,A,4634.9235,N,00019.9593,E,2.144,316.18,070124,,,A,V*3E
$GNVTG,316.18,T,,M,2.144,N,3.974,K,A*24
$GNGGA,175530.818,4634.9235,N,00019.9593,E,1,8,1.54,93.3,M,48.4,M,,*79
$GNRMC,175530.818,A,4634.9235,N,00019.9593,E,1.174,328.98,070124,,,A,V*33
$GNVTG,328.98,T,,M,1.174,N,2.176,K,A*2A
$GNGGA,175531.783,4634.9346,N,00019.9590,E,1,9,1.53,89.9,M,48.4,M,,*74
$GNRMC,175531.783,A,4634.9346,N,00019.9590,E,0.463,328.98,070124,,,A,V*3B
$GNVTG,328.98,T,,M,0.463,N,0.858,K,A*2F
$GNGGA,175533.000,4634.9346,N,00019.9590,E,1,11,1.01,89.9,M,48.4,M,,*44
$GNRMC,175533.000,A,4634.9346,N,00019.9590,E,0.382,328.98,070124,,,A,V*3D
$GNVTG,328.98,T,,M,0.382,N,0.709,K,A*2C
$GNGGA,175534.000,4634.9346,N,00019.9590,E,1,11,1.01,89.9,M,48.4,M,,*43
$GNRMC,175534.000,A,4634.9346,N,00019.9590,E,0.553,328.98,070124,,,A,V*30
$GNVTG,328.98,T,,M,0.553,N,1.024,K,A*2F
$GNGGA,175535.000,4634.9346,N,00019.9590,E,1,11,1.01,89.9,M,48.4,M,,*42
$GNRMC,175535.000,A,4634.9346,N,00019.9590,E,0.000,328.98,070124,,,A,V*32
$GNVTG,328.98,T,,M,0.000,N,0.000,K,A*2B
$GNGGA,175536.000,4634.9346,N,00019.9590,E,1,12,0.91,89.9,M,48.4,M,,*4A
$GNRMC,175536.000,A,4634.9346,N,00019.9590,E,0.000,328.98,070124,,,A,V*31
$GNVTG,328.98,T,,M,0.000,N,0.000,K,A*2B
$GNGGA,175537.000,4634.9346,N,00019.9590,E,1,13,0.90,89.9,M,48.4,M,,*4B
$GNRMC,175537.000,A,4634.9346,N,00019.9590,E,0.000,328.98,070124,,,A,V*30
$GNVTG,328.98,T,,M,0.000,N,0.000,K,A*2B
$GNGGA,175537.500,4634.9387,N,00019.9972,E,1,13,0.90,38.0,M,48.4,M,,*40
$GNRMC,175537.500,A,4634.9387,N,00019.9972,E,0.000,328.98,070124,,,A,V*38
$GNVTG,328.98,T,,M,0.000,N,0.000,K,A*2B
$GNGGA,175538.000,4634.9389,N,00019.9988,E,1,13,0.90,36.7,M,48.4,M,,*48
$GNRMC,175538.000,A,4634.9389,N,00019.9988,E,0.000,328.98,070124,,,A,V*39
$GNVTG,328.98,T,,M,0.000,N,0.000,K,A*2B
$GNGGA,175538.500,4634.9389,N,00019.9988,E,1,13,0.90,36.7,M,48.4,M,,*4D
$GNRMC,175538.500,A,4634.9389,N,00019.9988,E,0.000,328.98,070124,,,A,V*3C
$GNVTG,328.98,T,,M,0.000,N,0.000,K,A*2B
$GNGGA,175540.000,4634.9389,N,00019.9988,E,1,13,0.90,36.7,M,48.4,M,,*47
$GNRMC,175540.000,A,4634.9389,N,00019.9988,E,0.000,328.98,070124,,,A,V*36
$GNVTG,328.98,T,,M,0.000,N,0.000,K,A*2B
$GNGGA,175541.000,4634.9389,N,00019.9988,E,1,14,0.89,36.7,M,48.4,M,,*49
$GNRMC,175541.000,A,4634.9389,N,00019.9988,E,0.000,328.98,070124,,,A,V*37
$GNVTG,328.98,T,,M,0.000,N,0.000,K,A*2B
$GNGGA,175542.000,4634.9389,N,00019.9988,E,1,14,0.89,36.7,M,48.4,M,,*4A
$GNRMC,175542.000,A,4634.9389,N,00019.9988,E,0.000,328.98,070124,,,A,V*34
$GNVTG,328.98,T,,M,0.000,N,0.000,K,A*2B
$GNGGA,175543.000,4634.9389,N,00019.9988,E,1,13,1.00,36.7,M,48.4,M,,*4C
$GNRMC,175543.000,A,4634.9389,N,00019.9988,E,0.000,328.98,070124,,,A,V*35
$GNVTG,328.98,T,,M,0.000,N,0.000,K,A*2B
$GNGGA,175544.000,4634.9389,N,00019.9988,E,1,13,0.94,36.7,M,48.4,M,,*47
$GNRMC,175544.000,A,4634.9389,N,00019.9988,E,0.000,328.98,070124,,,A,V*32
$GNVTG,328.98,T,,M,0.000,N,0.000,K,A*2B
$GNGGA,175545.000,4634.9389,N,00019.9988,E,1,14,0.83,36.7,M,48.4,M,,*47
$GNRMC,175545.000,A,4634.9389,N,00019.9988,E,0.000,328.98,070124,,,A,V*33
$GNVTG,328.98,T,,M,0.000,N,0.000,K,A*2B
$GNGGA,175546.000,4634.9411,N,00019.9957,E,1,14,0.83,49.4,M,48.4,M,,*4B
$GNRMC,175546.000,A,4634.9411,N,00019.9957,E,0.000,328.98,070124,,,A,V*34
$GNVTG,328.98,T,,M,0.000,N,0.000,K,A*2B
$GNGGA,175547.000,4634.9414,N,00019.9951,E,1,14,0.83,50.5,M,48.4,M,,*40
$GNRMC,175547.000,A,4634.9414,N,00019.9951,E,0.000,328.98,070124,,,A,V*36
$GNVTG,328.98,T,,M,0.000,N,0.000,K,A*2B
$GNGGA,175548.000,4634.9416,N,00019.9942,E,1,15,0.81,51.5,M,48.4,M,,*4D
$GNRMC,175548.000,A,4634.9416,N,00019.9942,E,0.000,328.98,070124,,,A,V*39
$GNVTG,328.98,T,,M,0.000,N,0.000,K,A*2B
$GNGGA,175549.000,4634.9414,N,00019.9933,E,1,16,0.78,52.0,M,48.4,M,,*4B
$GNRMC,175549.000,A,4634.9414,N,00019.9933,E,0.000,328.98,070124,,,A,V*3C
$GNVTG,328.98,T,,M,0.000,N,0.000,K,A*2B
$GNGGA,175550.000,4634.9417,N,00019.9932,E,1,17,0.78,52.2,M,48.4,M,,*42
$GNRMC,175550.000,A,4634.9417,N,00019.9932,E,0.000,328.98,070124,,,A,V*36
$GNVTG,328.98,T,,M,0.000,N,0.000,K,A*2B
$GNGGA,175551.000,4634.9422,N,00019.9928,E,1,16,0.81,52.6,M,48.4,M,,*4D
$GNRMC,175551.000,A,4634.9422,N,00019.9928,E,0.000,328.98,070124,,,A,V*3A
$GNVTG,328.98,T,,M,0.000,N,0.000,K,A*2B
$GNGGA,175552.000,4634.9426,N,00019.9921,E,1,15,0.88,53.0,M,48.4,M,,*4E
$GNRMC,175552.000,A,4634.9426,N,00019.9921,E,0.000,328.98,070124,,,A,V*34
$GNVTG,328.98,T,,M,0.000,N,0.000,K,A*2B
$GNGGA,175553.000,4634.9429,N,00019.9921,E,1,15,0.88,53.4,M,48.4,M,,*44
$GNRMC,175553.000,A,4634.9429,N,00019.9921,E,0.000,328.98,070124,,,A,V*3A
$GNVTG,328.98,T,,M,0.000,N,0.000,K,A*2B
$GNGGA,175554.000,4634.9429,N,00019.9921,E,1,14,0.92,53.4,M,48.4,M,,*49
$GNRMC,175554.000,A,4634.9429,N,00019.9921,E,0.000,328.98,070124,,,A,V*3D
$GNVTG,328.98,T,,M,0.000,N,0.000,K,A*2B
$GNGGA,175555.000,4634.9436,N,00019.9905,E,1,13,0.91,55.7,M,48.4,M,,*41
$GNRMC,175555.000,A,4634.9436,N,00019.9905,E,0.000,328.98,070124,,,A,V*34
$GNVTG,328.98,T,,M,0.000,N,0.000,K,A*2B
$GNGGA,175556.000,4634.9439,N,00019.9893,E,1,15,0.83,57.1,M,48.4,M,,*42
$GNRMC,175556.000,A,4634.9439,N,00019.9893,E,0.000,328.98,070124,,,A,V*36
$GNVTG,328.98,T,,M,0.000,N,0.000,K,A*2B
$GNGGA,175557.000,4634.9440,N,00019.9885,E,1,14,0.85,58.1,M,48.4,M,,*42
$GNRMC,175557.000,A,4634.9440,N,00019.9885,E,0.000,328.98,070124,,,A,V*3E
$GNVTG,328.98,T,,M,0.000,N,0.000,K,A*2B
$GNGGA,175558.000,4634.9440,N,00019.9885,E,1,14,0.85,58.1,M,48.4,M,,*4D
$GNRMC,175558.000,A,4634.9440,N,00019.9885,E,0.000,328.98,070124,,,A,V*31
$GNVTG,328.98,T,,M,0.000,N,0.000,K,A*2B
$GNGGA,175559.000,4634.9440,N,00019.9885,E,1,14,0.85,58.1,M,48.4,M,,*4C
$GNRMC,175559.000,A,4634.9440,N,00019.9885,E,0.000,328.98,070124,,,A,V*30
$GNVTG,328.98,T,,M,0.000,N,0.000,K,A*2B
$GNGGA,175600.000,4634.9422,N,00019.9830,E,1,16,0.82,65.9,M,48.4,M,,*4A
$GNRMC,175600.000,A,4634.9422,N,00019.9830,E,0.000,328.98,070124,,,A,V*35
$GNVTG,328.98,T,,M,0.000,N,0.000,K,A*2B
$GNGGA,175601.000,4634.9418,N,00019.9811,E,1,16,0.82,68.4,M,48.4,M,,*41
$GNRMC,175601.000,A,4634.9418,N,00019.9811,E,0.000,328.98,070124,,,A,V*3E
$GNVTG,328.98,T,,M,0.000,N,0.000,K,A*2B
$GNGGA,175602.000,4634.9418,N,00019.9811,E,1,16,0.82,68.4,M,48.4,M,,*42
$GNRMC,175602.000,A,4634.9418,N,00019.9811,E,0.000,328.98,070124,,,A,V*3D
$GNVTG,328.98,T,,M,0.000,N,0.000,K,A*2B
$GNGGA,175603.000,4634.9410,N,00019.9795,E,1,16,0.82,72.5,M,48.4,M,,*42
$GNRMC,175603.000,A,4634.9410,N,00019.9795,E,0.000,328.98,070124,,,A,V*37
$GNVTG,328.98,T,,M,0.000,N,0.000,K,A*2B
$GNGGA,175604.000,4634.9408,N,00019.9799,E,1,16,0.82,72.4,M,48.4,M,,*41
$GNRMC,175604.000,A,4634.9408,N,00019.9799,E,0.000,328.98,070124,,,A,V*35
$GNVTG,328.98,T,,M,0.000,N,0.000,K,A*2B
$GNGGA,175605.000,4634.9409,N,00019.9802,E,1,14,0.95,72.5,M,48.4,M,,*49
$GNRMC,175605.000,A,4634.9409,N,00019.9802,E,0.000,328.98,070124,,,A,V*38
$GNVTG,328.98,T,,M,0.000,N,0.000,K,A*2B
$GNGGA,175606.000,4634.9411,N,00019.9802,E,1,14,0.97,72.6,M,48.4,M,,*42
$GNRMC,175606.000,A,4634.9411,N,00019.9802,E,0.000,328.98,070124,,,A,V*32
$GNVTG,328.98,T,,M,0.000,N,0.000,K,A*2B
$GNGGA,175607.000,4634.9412,N,00019.9802,E,1,14,0.97,72.1,M,48.4,M,,*47
$GNRMC,175607.000,A,4634.9412,N,00019.9802,E,0.000,328.98,070124,,,A,V*30
$GNVTG,328.98,T,,M,0.000,N,0.000,K,A*2B
$GNGGA,175608.000,4634.9411,N,00019.9803,E,1,14,0.97,72.1,M,48.4,M,,*4A
$GNRMC,175608.000,A,4634.9411,N,00019.9803,E,0.000,328.98,070124,,,A,V*3D
$GNVTG,328.98,T,,M,0.000,N,0.000,K,A*2B
$GNGGA,175609.000,4634.9411,N,00019.9805,E,1,14,0.97,72.0,M,48.4,M,,*4C
$GNRMC,175609.000,A,4634.9411,N,00019.9805,E,0.000,328.98,070124,,,A,V*3A
$GNVTG,328.98,T,,M,0.000,N,0.000,K,A*2B
$GNGGA,175610.000,4634.9412,N,00019.9805,E,1,14,0.97,71.4,M,48.4,M,,*40
$GNRMC,175610.000,A,4634.9412,N,00019.9805,E,0.000,328.98,070124,,,A,V*31
$GNVTG,328.98,T,,M,0.000,N,0.000,K,A*2B
$GNGGA,175611.000,4634.9414,N,00019.9807,E,1,15,0.95,71.4,M,48.4,M,,*46
$GNRMC,175611.000,A,4634.9414,N,00019.9807,E,0.000,328.98,070124,,,A,V*34
$GNVTG,328.98,T,,M,0.000,N,0.000,K,A*2B
$GNGGA,175612.000,4634.9413,N,00019.9810,E,1,15,0.95,71.4,M,48.4,M,,*44
$GNRMC,175612.000,A,4634.9413,N,00019.9810,E,0.000,328.98,070124,,,A,V*36
$GNVTG,328.98,T,,M,0.000,N,0.000,K,A*2B
$GNGGA,175613.000,4634.9413,N,00019.9809,E,1,15,0.95,71.5,M,48.4,M,,*4C
$GNRMC,175613.000,A,4634.9413,N,00019.9809,E,0.000,328.98,070124,,,A,V*3F
$GNVTG,328.98,T,,M,0.000,N,0.000,K,A*2B
$GNGGA,175614.000,4634.9415,N,00019.9809,E,1,16,0.83,71.5,M,48.4,M,,*49
$GNRMC,175614.000,A,4634.9415,N,00019.9809,E,0.000,328.98,070124,,,A,V*3E
$GNVTG,328.98,T,,M,0.000,N,0.000,K,A*2B
$GNGGA,175615.000,4634.9415,N,00019.9809,E,1,17,0.79,71.5,M,48.4,M,,*4C
$GNRMC,175615.000,A,4634.9415,N,00019.9809,E,0.000,328.98,070124,,,A,V*3F
$GNVTG,328.98,T,,M,0.000,N,0.000,K,A*2B
$GNGGA,175616.000,4634.9413,N,00019.9810,E,1,17,0.79,71.8,M,48.4,M,,*4C
$GNRMC,175616.000,A,4634.9413,N,00019.9810,E,0.000,328.98,070124,,,A,V*32
$GNVTG,328.98,T,,M,0.000,N,0.000,K,A*2B
$GNGGA,175617.000,4634.9413,N,00019.9810,E,1,16,0.81,71.8,M,48.4,M,,*4B
$GNRMC,175617.000,A,4634.9413,N,00019.9810,E,0.000,328.98,070124,,,A,V*33
$GNVTG,328.98,T,,M,0.000,N,0.000,K,A*2B
$GNGGA,175618.000,4634.9413,N,00019.9810,E,1,15,0.82,71.8,M,48.4,M,,*44
$GNRMC,175618.000,A,4634.9413,N,00019.9810,E,0.000,328.98,070124,,,A,V*3C
$GNVTG,328.98,T,,M,0.000,N,0.000,K,A*2B
$GNGGA,175619.000,4634.9413,N,00019.9810,E,1,13,0.87,71.8,M,48.4,M,,*46
$GNRMC,175619.000,A,4634.9413,N,00019.9810,E,0.000,328.98,070124,,,A,V*3D
$GNVTG,328.98,T,,M,0.000,N,0.000,K,A*2B
$GNGGA,175620.000,4634.9413,N,00019.9810,E,1,14,0.83,71.8,M,48.4,M,,*4F
$GNRMC,175620.000,A,4634.9413,N,00019.9810,E,0.000,328.98,070124,,,A,V*37
$GNVTG,328.98,T,,M,0.000,N,0.000,K,A*2B
$GNGGA,175621.000,4634.9412,N,00019.9832,E,1,13,0.85,72.5,M,48.4,M,,*40
$GNRMC,175621.000,A,4634.9412,N,00019.9832,E,0.000,328.98,070124,,,A,V*37
$GNVTG,328.98,T,,M,0.000,N,0.000,K,A*2B
$GNGGA,175622.000,4634.9416,N,00019.9835,E,1,14,0.85,72.8,M,48.4,M,,*4A
$GNRMC,175622.000,A,4634.9416,N,00019.9835,E,0.000,328.98,070124,,,A,V*37
$GNVTG,328.98,T,,M,0.000,N,0.000,K,A*2B
$GNGGA,175623.000,4634.9420,N,00019.9837,E,1,14,0.85,72.7,M,48.4,M,,*43
$GNRMC,175623.000,A,4634.9420,N,00019.9837,E,0.000,328.98,070124,,,A,V*31
$GNVTG,328.98,T,,M,0.000,N,0.000,K,A*2B
$GNGGA,175624.000,4634.9423,N,00019.9839,E,1,15,0.85,72.6,M,48.4,M,,*49
$GNRMC,175624.000,A,4634.9423,N,00019.9839,E,0.000,328.98,070124,,,A,V*3B
$GNVTG,328.98,T,,M,0.000,N,0.000,K,A*2B
$GNGGA,175625.000,4634.9422,N,00019.9841,E,1,15,0.85,72.7,M,48.4,M,,*47
$GNRMC,175625.000,A,4634.9422,N,00019.9841,E,0.000,328.98,070124,,,A,V*34
$GNVTG,328.98,T,,M,0.000,N,0.000,K,A*2B
$GNGGA,175626.000,4634.9423,N,00019.9842,E,1,15,0.85,72.7,M,48.4,M,,*46
$GNRMC,175626.000,A,4634.9423,N,00019.9842,E,0.000,328.98,070124,,,A,V*35
$GNVTG,328.98,T,,M,0.000,N,0.000,K,A*2B
$GNGGA,175627.000,4634.9424,N,00019.9844,E,1,15,0.85,72.3,M,48.4,M,,*42
$GNRMC,175627.000,A,4634.9424,N,00019.9844,E,0.000,328.98,070124,,,A,V*35
$GNVTG,328.98,T,,M,0.000,N,0.000,K,A*2B
$GNGGA,175628.000,4634.9424,N,00019.9844,E,1,16,0.77,72.0,M,48.4,M,,*40
$GNRMC,175628.000,A,4634.9424,N,00019.9844,E,0.000,328.98,070124,,,A,V*3A
$GNVTG,328.98,T,,M,0.000,N,0.000,K,A*2B
$GNGGA,175629.000,4634.9424,N,00019.9839,E,1,16,0.77,72.0,M,48.4,M,,*4B
$GNRMC,175629.000,A,4634.9424,N,00019.9839,E,0.000,328.98,070124,,,A,V*31
$GNVTG,328.98,T,,M,0.000,N,0.000,K,A*2B
$GNGGA,175630.000,4634.9421,N,00019.9837,E,1,16,0.77,72.1,M,48.4,M,,*49
$GNRMC,175630.000,A,4634.9421,N,00019.9837,E,0.000,328.98,070124,,,A,V*32
$GNVTG,328.98,T,,M,0.000,N,0.000,K,A*2B
$GNGGA,175631.000,4634.9419,N,00019.9834,E,1,16,0.77,71.7,M,48.4,M,,*45
$GNRMC,175631.000,A,4634.9419,N,00019.9834,E,0.000,328.98,070124,,,A,V*3B
$GNVTG,328.98,T,,M,0.000,N,0.000,K,A*2B
$GNGGA,175632.000,4634.9417,N,00019.9828,E,1,14,0.81,71.9,M,48.4,M,,*40
$GNRMC,175632.000,A,4634.9417,N,00019.9828,E,0.000,328.98,070124,,,A,V*3B
$GNVTG,328.98,T,,M,0.000,N,0.000,K,A*2B
$GNGGA,175633.000,4634.9415,N,00019.9827,E,1,15,0.81,71.9,M,48.4,M,,*4D
$GNRMC,175633.000,A,4634.9415,N,00019.9827,E,0.000,328.98,070124,,,A,V*37
$GNVTG,328.98,T,,M,0.000,N,0.000,K,A*2B
$GNGGA,175634.000,4634.9415,N,00019.9823,E,1,15,0.81,72.1,M,48.4,M,,*45
$GNRMC,175634.000,A,4634.9415,N,00019.9823,E,0.000,328.98,070124,,,A,V*34
$GNVTG,328.98,T,,M,0.000,N,0.000,K,A*2B
$GNGGA,175635.000,4634.9414,N,00019.9820,E,1,16,0.77,72.2,M,48.4,M,,*4F
$GNRMC,175635.000,A,4634.9414,N,00019.9820,E,0.000,328.98,070124,,,A,V*37
$GNVTG,328.98,T,,M,0.000,N,0.000,K,A*2B
$GNGGA,175636.000,4634.9414,N,00019.9819,E,1,16,0.77,72.0,M,48.4,M,,*44
$GNRMC,175636.000,A,4634.9414,N,00019.9819,E,0.000,328.98,070124,,,A,V*3E
$GNVTG,328.98,T,,M,0.000,N,0.000,K,A*2B
$GNGGA,175637.000,4634.9414,N,00019.9819,E,1,16,0.77,71.7,M,48.4,M,,*41
$GNRMC,175637.000,A,4634.9414,N,00019.9819,E,0.000,328.98,070124,,,A,V*3F
$GNVTG,328.98,T,,M,0.000,N,0.000,K,A*2B
$GNGGA,175638.000,4634.9414,N,00019.9819,E,1,15,0.85,71.7,M,48.4,M,,*40
$GNRMC,175638.000,A,4634.9414,N,00019.9819,E,0.000,328.98,070124,,,A,V*30
$GNVTG,328.98,T,,M,0.000,N,0.000,K,A*2B
$GNGGA,175639.000,4634.9414,N,00019.9819,E,1,15,0.85,71.7,M,48.4,M,,*41
$GNRMC,175639.000,A,4634.9414,N,00019.9819,E,0.000,328.98,070124,,,A,V*31
$GNVTG,328.98,T,,M,0.000,N,0.000,K,A*2B
$GNGGA,175640.000,4634.9414,N,00019.9819,E,1,15,0.85,71.7,M,48.4,M,,*4F
$GNRMC,175640.000,A,4634.9414,N,00019.9819,E,0.000,328.98,070124,,,A,V*3F
$GNVTG,328.98,T,,M,0.000,N,0.000,K,A*2B
$GNGGA,175641.000,4634.9414,N,00019.9819,E,1,15,0.85,71.7,M,48.4,M,,*4E
$GNRMC,175641.000,A,4634.9414,N,00019.9819,E,0.000,328.98,070124,,,A,V*3E
$GNVTG,328.98,T,,M,0.000,N,0.000,K,A*2B
$GNGGA,175642.000,4634.9414,N,00019.9819,E,1,15,0.85,71.7,M,48.4,M,,*4D
$GNRMC,175642.000,A,4634.9414,N,00019.9819,E,0.000,328.98,070124,,,A,V*3D
$GNVTG,328.98,T,,M,0.000,N,0.000,K,A*2B
$GNGGA,175643.000,4634.9414,N,00019.9819,E,1,15,0.85,71.7,M,48.4,M,,*4C
$GNRMC,175643.000,A,4634.9414,N,00019.9819,E,0.000,328.98,070124,,,A,V*3C
$GNVTG,328.98,T,,M,0.000,N,0.000,K,A*2B
$GNGGA,175644.000,4634.9414,N,00019.9819,E,1,15,0.85,71.7,M,48.4,M,,*4B
$GNRMC,175644.000,A,4634.9414,N,00019.9819,E,0.000,328.98,070124,,,A,V*3B
$GNVTG,328.98,T,,M,0.000,N,0.000,K,A*2B
$GNGGA,175645.000,4634.9414,N,00019.9819,E,1,15,0.85,71.7,M,48.4,M,,*4A
$GNRMC,175645.000,A,4634.9414,N,00019.9819,E,0.000,328.98,070124,,,A,V*3A
$GNVTG,328.98,T,,M,0.000,N,0.000,K,A*2B
$GNGGA,175646.000,4634.9414,N,00019.9819,E,1,16,0.77,71.7,M,48.4,M,,*47
$GNRMC,175646.000,A,4634.9414,N,00019.9819,E,0.000,328.98,070124,,,A,V*39
$GNVTG,328.98,T,,M,0.000,N,0.000,K,A*2B
$GNGGA,175647.000,4634.9414,N,00019.9819,E,1,17,0.71,71.7,M,48.4,M,,*41
$GNRMC,175647.000,A,4634.9414,N,00019.9819,E,0.000,328.98,070124,,,A,V*38
$GNVTG,328.98,T,,M,0.000,N,0.000,K,A*2B
$GNGGA,175648.000,4634.9413,N,00019.9826,E,1,16,0.76,73.4,M,48.4,M,,*42
$GNRMC,175648.000,A,4634.9413,N,00019.9826,E,0.000,328.98,070124,,,A,V*3C
$GNVTG,328.98,T,,M,0.000,N,0.000,K,A*2B
$GNGGA,175649.000,4634.9411,N,00019.9828,E,1,16,0.71,74.1,M,48.4,M,,*4A
$GNRMC,175649.000,A,4634.9411,N,00019.9828,E,0.000,328.98,070124,,,A,V*31
$GNVTG,328.98,T,,M,0.000,N,0.000,K,A*2B
$GNGGA,175650.000,4634.9412,N,00019.9821,E,1,16,0.74,74.8,M,48.4,M,,*44
$GNRMC,175650.000,A,4634.9412,N,00019.9821,E,0.000,328.98,070124,,,A,V*33
$GNVTG,328.98,T,,M,0.000,N,0.000,K,A*2B
$GNGGA,175651.000,4634.9412,N,00019.9815,E,1,15,0.78,75.4,M,48.4,M,,*40
$GNRMC,175651.000,A,4634.9412,N,00019.9815,E,0.000,328.98,070124,,,A,V*35
$GNVTG,328.98,T,,M,0.000,N,0.000,K,A*2B
$GNGGA,175652.000,4634.9414,N,00019.9808,E,1,14,0.78,75.6,M,48.4,M,,*4A
$GNRMC,175652.000,A,4634.9414,N,00019.9808,E,0.000,328.98,070124,,,A,V*3C
$GNVTG,328.98,T,,M,0.000,N,0.000,K,A*2B
$GNGGA,175653.000,4634.9416,N,00019.9801,E,1,15,0.74,75.9,M,48.4,M,,*42
$GNRMC,175653.000,A,4634.9416,N,00019.9801,E,0.000,328.98,070124,,,A,V*36
$GNVTG,328.98,T,,M,0.000,N,0.000,K,A*2B
$GNGGA,175654.000,4634.9415,N,00019.9797,E,1,14,0.77,75.9,M,48.4,M,,*44
$GNRMC,175654.000,A,4634.9415,N,00019.9797,E,0.000,328.98,070124,,,A,V*32
$GNVTG,328.98,T,,M,0.000,N,0.000,K,A*2B
$GNGGA,175655.000,4634.9415,N,00019.9794,E,1,14,0.77,76.1,M,48.4,M,,*4D
$GNRMC,175655.000,A,4634.9415,N,00019.9794,E,0.000,328.98,070124,,,A,V*30
$GNVTG,328.98,T,,M,0.000,N,0.000,K,A*2B
$GNGGA,175656.000,4634.9417,N,00019.9791,E,1,14,0.77,76.3,M,48.4,M,,*4B
$GNRMC,175656.000,A,4634.9417,N,00019.9791,E,0.000,328.98,070124,,,A,V*34
$GNVTG,328.98,T,,M,0.000,N,0.000,K,A*2B
$GNGGA,175657.000,4634.9420,N,00019.9794,E,1,16,0.72,76.4,M,48.4,M,,*4B
$GNRMC,175657.000,A,4634.9420,N,00019.9794,E,0.000,328.98,070124,,,A,V*34
$GNVTG,328.98,T,,M,0.000,N,0.000,K,A*2B
$GNGGA,175658.000,4634.9426,N,00019.9799,E,1,17,0.71,76.2,M,48.4,M,,*4B
$GNRMC,175658.000,A,4634.9426,N,00019.9799,E,0.000,328.98,070124,,,A,V*30
$GNVTG,328.98,T,,M,0.000,N,0.000,K,A*2B
$GNGGA,175659.000,4634.9429,N,00019.9806,E,1,18,0.70,76.2,M,48.4,M,,*42
$GNRMC,175659.000,A,4634.9429,N,00019.9806,E,0.000,328.98,070124,,,A,V*37
$GNVTG,328.98,T,,M,0.000,N,0.000,K,A*2B
$GNGGA,175700.000,4634.9429,N,00019.9807,E,1,18,0.70,75.9,M,48.4,M,,*46
$GNRMC,175700.000,A,4634.9429,N,00019.9807,E,0.000,328.98,070124,,,A,V*3B
$GNVTG,328.98,T,,M,0.000,N,0.000,K,A*2B
$GNGGA,175701.000,4634.9430,N,00019.9814,E,1,18,0.70,75.7,M,48.4,M,,*43
$GNRMC,175701.000,A,4634.9430,N,00019.9814,E,0.000,328.98,070124,,,A,V*30
$GNVTG,328.98,T,,M,0.000,N,0.000,K,A*2B
$GNGGA,175702.000,4634.9431,N,00019.9818,E,1,17,0.72,75.3,M,48.4,M,,*44
$GNRMC,175702.000,A,4634.9431,N,00019.9818,E,0.000,328.98,070124,,,A,V*3E
$GNVTG,328.98,T,,M,0.000,N,0.000,K,A*2B
$GNGGA,175703.000,4634.9433,N,00019.9825,E,1,17,0.72,74.9,M,48.4,M,,*42
$GNRMC,175703.000,A,4634.9433,N,00019.9825,E,0.000,328.98,070124,,,A,V*33
$GNVTG,328.98,T,,M,0.000,N,0.000,K,A*2B
$GNGGA,175704.000,4634.9434,N,00019.9831,E,1,17,0.72,74.6,M,48.4,M,,*48
$GNRMC,175704.000,A,4634.9434,N,00019.9831,E,0.000,328.98,070124,,,A,V*36
$GNVTG,328.98,T,,M,0.000,N,0.000,K,A*2B
$GNGGA,175705.000,4634.9434,N,00019.9835,E,1,17,0.72,74.4,M,48.4,M,,*4F
$GNRMC,175705.000,A,4634.9434,N,00019.9835,E,0.000,328.98,070124,,,A,V*33
$GNVTG,328.98,T,,M,0.000,N,0.000,K,A*2B
$GNGGA,175706.000,4634.9434,N,00019.9837,E,1,17,0.72,74.2,M,48.4,M,,*48
$GNRMC,175706.000,A,4634.9434,N,00019.9837,E,0.000,328.98,070124,,,A,V*32
$GNVTG,328.98,T,,M,0.000,N,0.000,K,A*2B
$GNGGA,175707.000,4634.9434,N,00019.9838,E,1,17,0.72,74.1,M,48.4,M,,*45
$GNRMC,175707.000,A,4634.9434,N,00019.9838,E,0.000,328.98,070124,,,A,V*3C
$GNVTG,328.98,T,,M,0.000,N,0.000,K,A*2B
$GNGGA,175708.000,4634.9434,N,00019.9838,E,1,17,0.72,74.1,M,48.4,M,,*4A
$GNRMC,175708.000,A,4634.9434,N,00019.9838,E,0.000,328.98,070124,,,A,V*33
$GNVTG,328.98,T,,M,0.000,N,0.000,K,A*2B
$GNGGA,175709.000,4634.9435,N,00019.9838,E,1,16,0.76,74.1,M,48.4,M,,*4F
$GNRMC,175709.000,A,4634.9435,N,00019.9838,E,0.000,328.98,070124,,,A,V*33
$GNVTG,328.98,T,,M,0.000,N,0.000,K,A*2B
$GNGGA,175710.000,4634.9436,N,00019.9838,E,1,16,0.73,74.2,M,48.4,M,,*42
$GNRMC,175710.000,A,4634.9436,N,00019.9838,E,0.000,328.98,070124,,,A,V*38
$GNVTG,328.98,T,,M,0.000,N,0.000,K,A*2B
$GNGGA,175711.000,4634.9436,N,00019.9839,E,1,15,0.77,74.3,M,48.4,M,,*44
$GNRMC,175711.000,A,4634.9436,N,00019.9839,E,0.000,328.98,070124,,,A,V*38
$GNVTG,328.98,T,,M,0.000,N,0.000,K,A*2B
$GNGGA,175712.000,4634.9436,N,00019.9841,E,1,15,0.77,74.3,M,48.4,M,,*48
$GNRMC,175712.000,A,4634.9436,N,00019.9841,E,0.000,328.98,070124,,,A,V*34
$GNVTG,328.98,T,,M,0.000,N,0.000,K,A*2B
$GNGGA,175713.000,4634.9436,N,00019.9843,E,1,15,0.77,74.3,M,48.4,M,,*4B
$GNRMC,175713.000,A,4634.9436,N,00019.9843,E,0.000,328.98,070124,,,A,V*37
$GNVTG,328.98,T,,M,0.000,N,0.000,K,A*2B
$GNGGA,175714.000,4634.9438,N,00019.9850,E,1,14,0.81,74.2,M,48.4,M,,*49
$GNRMC,175714.000,A,4634.9438,N,00019.9850,E,0.000,328.98,070124,,,A,V*3C
$GNVTG,328.98,T,,M,0.000,N,0.000,K,A*2B
$GNGGA,175715.000,4634.9439,N,00019.9856,E,1,14,0.81,74.1,M,48.4,M,,*4C
$GNRMC,175715.000,A,4634.9439,N,00019.9856,E,0.000,328.98,070124,,,A,V*3A
$GNVTG,328.98,T,,M,0.000,N,0.000,K,A*2B
$GNGGA,175716.000,4634.9440,N,00019.9856,E,1,15,0.75,74.2,M,48.4,M,,*48
$GNRMC,175716.000,A,4634.9440,N,00019.9856,E,0.000,328.98,070124,,,A,V*37
$GNVTG,328.98,T,,M,0.000,N,0.000,K,A*2B
$GNGGA,175717.000,4634.9437,N,00019.9850,E,1,15,0.75,74.2,M,48.4,M,,*4F
$GNRMC,175717.000,A,4634.9437,N,00019.9850,E,0.000,328.98,070124,,,A,V*30
$GNVTG,328.98,T,,M,0.000,N,0.000,K,A*2B
$GNGGA,175718.000,4634.9435,N,00019.9843,E,1,13,0.84,73.9,M,48.4,M,,*44
$GNRMC,175718.000,A,4634.9435,N,00019.9843,E,0.000,328.98,070124,,,A,V*3F
$GNVTG,328.98,T,,M,0.000,N,0.000,K,A*2B
$GNGGA,175719.000,4634.9435,N,00019.9842,E,1,13,0.84,74.2,M,48.4,M,,*48
$GNRMC,175719.000,A,4634.9435,N,00019.9842,E,0.000,328.98,070124,,,A,V*3F
$GNVTG,328.98,T,,M,0.000,N,0.000,K,A*2B
$GNGGA,175720.000,4634.9432,N,00019.9836,E,1,13,0.84,74.3,M,48.4,M,,*47
$GNRMC,175720.000,A,4634.9432,N,00019.9836,E,0.000,328.98,070124,,,A,V*31
$GNVTG,328.98,T,,M,0.000,N,0.000,K,A*2B
$GNGGA,175721.000,4634.9433,N,00019.9835,E,1,14,0.84,74.4,M,48.4,M,,*44
$GNRMC,175721.000,A,4634.9433,N,00019.9835,E,0.000,328.98,070124,,,A,V*32
$GNVTG,328.98,T,,M,0.000,N,0.000,K,A*2B
$GNGGA,175722.000,4634.9434,N,00019.9838,E,1,14,0.84,74.5,M,48.4,M,,*4C
$GNRMC,175722.000,A,4634.9434,N,00019.9838,E,0.000,328.98,070124,,,A,V*3B
$GNVTG,328.98,T,,M,0.000,N,0.000,K,A*2B
$GNGGA,175723.000,4634.9435,N,00019.9850,E,1,14,0.84,74.6,M,48.4,M,,*41
$GNRMC,175723.000,A,4634.9435,N,00019.9850,E,0.000,328.98,070124,,,A,V*35
$GNVTG,328.98,T,,M,0.000,N,0.000,K,A*2B
$GNGGA,175724.000,4634.9437,N,00019.9866,E,1,14,0.79,74.6,M,48.4,M,,*43
$GNRMC,175724.000,A,4634.9437,N,00019.9866,E,0.000,328.98,070124,,,A,V*35
$GNVTG,328.98,T,,M,0.000,N,0.000,K,A*2B
$GNGGA,175725.000,4634.9437,N,00019.9880,E,1,14,0.79,74.6,M,48.4,M,,*4A
$GNRMC,175725.000,A,4634.9437,N,00019.9880,E,0.000,328.98,070124,,,A,V*3C
$GNVTG,328.98,T,,M,0.000,N,0.000,K,A*2B
$GNGGA,175726.000,4634.9439,N,00019.9895,E,1,14,0.79,74.5,M,48.4,M,,*40
$GNRMC,175726.000,A,4634.9439,N,00019.9895,E,0.000,328.98,070124,,,A,V*35
$GNVTG,328.98,T,,M,0.000,N,0.000,K,A*2B
$GNGGA,175727.000,4634.9443,N,00019.9919,E,1,15,0.78,74.4,M,48.4,M,,*48
$GNRMC,175727.000,A,4634.9443,N,00019.9919,E,0.000,328.98,070124,,,A,V*3C
$GNVTG,328.98,T,,M,0.000,N,0.000,K,A*2B
$GNGGA,175728.000,4634.9445,N,00019.9939,E,1,17,0.74,74.3,M,48.4,M,,*4A
$GNRMC,175728.000,A,4634.9445,N,00019.9939,E,0.000,328.98,070124,,,A,V*37
$GNVTG,328.98,T,,M,0.000,N,0.000,K,A*2B
$GNGGA,175729.000,4634.9445,N,00019.9943,E,1,15,0.79,74.2,M,48.4,M,,*48
$GNRMC,175729.000,A,4634.9445,N,00019.9943,E,0.000,328.98,070124,,,A,V*3B
$GNVTG,328.98,T,,M,0.000,N,0.000,K,A*2B
$GNGGA,175730.000,4634.9445,N,00019.9958,E,1,15,0.78,73.9,M,48.4,M,,*47
$GNRMC,175730.000,A,4634.9445,N,00019.9958,E,0.000,328.98,070124,,,A,V*39
$GNVTG,328.98,T,,M,0.000,N,0.000,K,A*2B
$GNGGA,175731.000,4634.9438,N,00019.9944,E,1,15,0.79,73.7,M,48.4,M,,*4E
$GNRMC,175731.000,A,4634.9438,N,00019.9944,E,0.000,328.98,070124,,,A,V*3F
$GNVTG,328.98,T,,M,0.000,N,0.000,K,A*2B
$GNGGA,175732.000,4634.9436,N,00019.9937,E,1,16,0.78,73.6,M,48.4,M,,*44
$GNRMC,175732.000,A,4634.9436,N,00019.9937,E,0.000,328.98,070124,,,A,V*36
$GNVTG,328.98,T,,M,0.000,N,0.000,K,A*2B
$GNGGA,175733.000,4634.9435,N,00019.9939,E,1,16,0.78,73.4,M,48.4,M,,*4A
$GNRMC,175733.000,A,4634.9435,N,00019.9939,E,4.633,91.04,070124,,,A,V*0C
$GNVTG,91.04,T,,M,4.633,N,8.584,K,A*1C
$GNGGA,175734.000,4634.9433,N,00019.9934,E,1,16,0.78,73.2,M,48.4,M,,*40
$GNRMC,175734.000,A,4634.9433,N,00019.9934,E,4.190,164.96,070124,,,A,V*3E
$GNVTG,164.96,T,,M,4.190,N,7.764,K,A*21
$GNGGA,175735.000,4634.9433,N,00019.9926,E,1,16,0.78,73.2,M,48.4,M,,*42
$GNRMC,175735.000,A,4634.9433,N,00019.9926,E,0.000,164.96,070124,,,A,V*30
$GNVTG,164.96,T,,M,0.000,N,0.000,K,A*2F
$GNGGA,175736.000,4634.9434,N,00019.9923,E,1,16,0.78,73.2,M,48.4,M,,*43
$GNRMC,175736.000,A,4634.9434,N,00019.9923,E,0.000,164.96,070124,,,A,V*31
$GNVTG,164.96,T,,M,0.000,N,0.000,K,A*2F
$GNGGA,175737.000,4634.9435,N,00019.9923,E,1,15,0.84,73.1,M,48.4,M,,*40
$GNRMC,175737.000,A,4634.9435,N,00019.9923,E,0.000,164.96,070124,,,A,V*31
$GNVTG,164.96,T,,M,0.000,N,0.000,K,A*2F
$GNGGA,175738.000,4634.9436,N,00019.9924,E,1,15,0.84,73.0,M,48.4,M,,*4A
$GNRMC,175738.000,A,4634.9436,N,00019.9924,E,0.000,164.96,070124,,,A,V*3A
$GNVTG,164.96,T,,M,0.000,N,0.000,K,A*2F
$GNGGA,175739.000,4634.9436,N,00019.9927,E,1,14,0.85,72.7,M,48.4,M,,*4E
$GNGGA,175746.521,,,,,0,0,,,M,,M,,*56
$GNRMC,175746.521,V,,,,,,,070124,,,N,V*29
$GNVTG,0.00,T,,M,0.000,N,0.000,K,N*2C
$GNGGA,175747.021,,,,,0,0,,,M,,M,,*52
$GNRMC,175747.021,V,,,,,,,070124,,,N,V*2D
$GNVTG,0.00,T,,M,0.000,N,0.000,K,N*2C
$GNGGA,175747.521,,,,,0,0,,,M,,M,,*57
$GNRMC,175747.521,V,,,,,,,070124,,,N,V*28
$GNVTG,0.00,T,,M,0.000,N,0.000,K,N*2C
$GNGGA,175748.021,,,,,0,0,,,M,,M,,*5D
$GNRMC,175748.021,V,,,,,,,070124,,,N,V*22
$GNVTG,0.00,T,,M,0.000,N,0.000,K,N*2C
$GNGGA,175748.521,,,,,0,0,,,M,,M,,*58
$GNRMC,175748.521,V,,,,,,,070124,,,N,V*27
$GNVTG,0.00,T,,M,0.000,N,0.000,K,N*2C
$GNGGA,175749.021,,,,,0,0,,,M,,M,,*5C
$GNRMC,175749.021,V,,,,,,,070124,,,N,V*23
$GNVTG,0.00,T,,M,0.000,N,0.000,K,N*2C
$GNGGA,175749.521,,,,,0,0,,,M,,M,,*59
$GNRMC,175749.521,V,,,,,,,070124,,,N,V*26
$GNVTG,0.00,T,,M,0.000,N,0.000,K,N*2C
$GNGGA,175750.021,,,,,0,0,,,M,,M,,*54
$GNRMC,175750.021,V,,,,,,,070124,,,N,V*2B
$GNVTG,0.00,T,,M,0.000,N,0.000,K,N*2C
$GNGGA,175751.021,4634.9419,N,00019.9938,E,1,5,1.79,72.4,M,48.4,M,,*71
$GNRMC,175751.021,A,4634.9419,N,00019.9938,E,0.000,0.00,070124,,,A,V*3A
$GNVTG,0.00,T,,M,0.000,N,0.000,K,A*23
$GNGGA,175752.021,4634.9419,N,00019.9938,E,1,5,1.95,72.4,M,48.4,M,,*70
$GNRMC,175752.021,A,4634.9419,N,00019.9938,E,0.000,0.00,070124,,,A,V*39
$GNVTG,0.00,T,,M,0.000,N,0.000,K,A*23
$GNGGA,175754.000,4634.9419,N,00019.9935,E,1,6,1.75,72.4,M,48.4,M,,*75
$GNRMC,175754.000,A,4634.9419,N,00019.9935,E,0.000,0.00,070124,,,A,V*31
$GNVTG,0.00,T,,M,0.000,N,0.000,K,A*23
$GNGGA,175755.000,4634.9420,N,00019.9935,E,1,7,1.90,72.4,M,48.4,M,,*74
$GNRMC,175755.000,A,4634.9420,N,00019.9935,E,0.000,0.00,070124,,,A,V*3A
$GNVTG,0.00,T,,M,0.000,N,0.000,K,A*23
$GNGGA,175756.000,4634.9438,N,00019.9909,E,1,7,1.90,72.4,M,48.4,M,,*71
$GNRMC,175756.000,A,4634.9438,N,00019.9909,E,0.000,0.00,070124,,,A,V*3F
$GNVTG,0.00,T,,M,0.000,N,0.000,K,A*23
$GNGGA,175757.000,4634.9444,N,00019.9906,E,1,9,1.10,72.4,M,48.4,M,,*72
$GNRMC,175757.000,A,4634.9444,N,00019.9906,E,0.000,0.00,070124,,,A,V*3A
$GNVTG,0.00,T,,M,0.000,N,0.000,K,A*23
$GNGGA,175758.000,4634.9448,N,00019.9904,E,1,9,1.10,72.4,M,48.4,M,,*73
$GNRMC,175758.000,A,4634.9448,N,00019.9904,E,0.000,0.00,070124,,,A,V*3B
$GNVTG,0.00,T,,M,0.000,N,0.000,K,A*23
$GNGGA,175759.000,4634.9450,N,00019.9901,E,1,9,1.10,72.4,M,48.4,M,,*7E
$GNRMC,175759.000,A,4634.9450,N,00019.9901,E,0.000,0.00,070124,,,A,V*36
$GNVTG,0.00,T,,M,0.000,N,0.000,K,A*23
$GNGGA,175800.000,4634.9446,N,00019.9903,E,1,8,1.27,72.4,M,48.4,M,,*7D
$GNRMC,175800.000,A,4634.9446,N,00019.9903,E,0.000,0.00,070124,,,A,V*30
$GNVTG,0.00,T,,M,0.000,N,0.000,K,A*23
$GNGGA,175801.000,4634.9441,N,00019.9905,E,1,7,1.72,72.4,M,48.4,M,,*72
$GNRMC,175801.000,A,4634.9441,N,00019.9905,E,0.000,0.00,070124,,,A,V*30
$GNVTG,0.00,T,,M,0.000,N,0.000,K,A*23
$GNGGA,175802.000,4634.9433,N,00019.9894,E,1,7,1.72,72.4,M,48.4,M,,*7D
$GNRMC,175802.000,A,4634.9433,N,00019.9894,E,0.000,0.00,070124,,,A,V*3F
$GNVTG,0.00,T,,M,0.000,N,0.000,K,A*23
$GNGGA,175803.000,4634.9428,N,00019.9881,E,1,8,1.20,72.4,M,48.4,M,,*7A
$GNRMC,175803.000,A,4634.9428,N,00019.9881,E,0.000,0.00,070124,,,A,V*30
$GNVTG,0.00,T,,M,0.000,N,0.000,K,A*23
$GNGGA,175804.000,4634.9424,N,00019.9881,E,1,8,1.20,72.4,M,48.4,M,,*71
$GNRMC,175804.000,A,4634.9424,N,00019.9881,E,0.000,0.00,070124,,,A,V*3B
$GNVTG,0.00,T,,M,0.000,N,0.000,K,A*23
$GNGGA,175805.000,4634.9419,N,00019.9875,E,1,8,1.20,72.4,M,48.4,M,,*75
$GNRMC,175805.000,A,4634.9419,N,00019.9875,E,0.000,0.00,070124,,,A,V*3F
$GNVTG,0.00,T,,M,0.000,N,0.000,K,A*23
$GNGGA,175806.000,4634.9419,N,00019.9875,E,1,7,1.39,72.4,M,48.4,M,,*71
$GNRMC,175806.000,A,4634.9419,N,00019.9875,E,0.000,0.00,070124,,,A,V*3C
$GNVTG,0.00,T,,M,0.000,N,0.000,K,A*23
$GNGGA,175807.000,4634.9414,N,00019.9876,E,1,7,1.39,72.4,M,48.4,M,,*7E
$GNRMC,175807.000,A,4634.9414,N,00019.9876,E,0.000,0.00,070124,,,A,V*33
$GNVTG,0.00,T,,M,0.000,N,0.000,K,A*23
$GNGGA,175808.000,4634.9404,N,00019.9876,E,1,6,5.83,72.4,M,48.4,M,,*74
$GNRMC,175808.000,A,4634.9404,N,00019.9876,E,0.000,0.00,070124,,,A,V*3D
$GNVTG,0.00,T,,M,0.000,N,0.000,K,A*23
$GNGGA,175809.000,4634.9383,N,00019.9878,E,1,7,1.30,72.4,M,48.4,M,,*7E
$GNRMC,175809.000,A,4634.9383,N,00019.9878,E,0.000,0.00,070124,,,A,V*3A
$GNVTG,0.00,T,,M,0.000,N,0.000,K,A*23
$GNGGA,175810.000,4634.9370,N,00019.9869,E,1,7,1.30,72.4,M,48.4,M,,*7A
$GNRMC,175810.000,A,4634.9370,N,00019.9869,E,0.000,0.00,070124,,,A,V*3E
$GNVTG,0.00,T,,M,0.000,N,0.000,K,A*23
$GNGGA,175811.000,4634.9366,N,00019.9854,E,1,5,2.14,72.5,M,48.4,M,,*74
$GNRMC,175811.000,A,4634.9366,N,00019.9854,E,0.000,0.00,070124,,,A,V*36
$GNVTG,0.00,T,,M,0.000,N,0.000,K,A*23
$GNGGA,175812.000,4634.9368,N,00019.9832,E,1,6,1.25,72.6,M,48.4,M,,*78
$GNRMC,175812.000,A,4634.9368,N,00019.9832,E,0.000,0.00,070124,,,A,V*3B
$GNVTG,0.00,T,,M,0.000,N,0.000,K,A*23
$GNGGA,175813.000,4634.9384,N,00019.9820,E,1,7,1.16,72.6,M,48.4,M,,*79
$GNRMC,175813.000,A,4634.9384,N,00019.9820,E,0.000,0.00,070124,,,A,V*3B
$GNVTG,0.00,T,,M,0.000,N,0.000,K,A*23
$GNGGA,175814.000,4634.9396,N,00019.9818,E,1,7,1.16,72.7,M,48.4,M,,*77
$GNRMC,175814.000,A,4634.9396,N,00019.9818,E,0.000,0.00,070124,,,A,V*34
$GNVTG,0.00,T,,M,0.000,N,0.000,K,A*23
$GNGGA,175815.000,4634.9405,N,00019.9826,E,1,7,1.16,72.7,M,48.4,M,,*76
$GNRMC,175815.000,A,4634.9405,N,00019.9826,E,0.000,0.00,070124,,,A,V*35
$GNVTG,0.00,T,,M,0.000,N,0.000,K,A*23
$GNGGA,175816.000,4634.9410,N,00019.9838,E,1,8,1.10,72.6,M,48.4,M,,*76
$GNRMC,175816.000,A,4634.9410,N,00019.9838,E,0.000,0.00,070124,,,A,V*3D
$GNVTG,0.00,T,,M,0.000,N,0.000,K,A*23
$GNGGA,175817.000,4634.9423,N,00019.9854,E,1,9,0.99,72.6,M,48.4,M,,*7C
$GNRMC,175817.000,A,4634.9423,N,00019.9854,E,0.000,0.00,070124,,,A,V*36
$GNVTG,0.00,T,,M,0.000,N,0.000,K,A*23
$GNGGA,175818.000,4634.9426,N,00019.9867,E,1,10,0.99,72.6,M,48.4,M,,*4E
$GNRMC,175818.000,A,4634.9426,N,00019.9867,E,0.000,0.00,070124,,,A,V*3C
$GNVTG,0.00,T,,M,0.000,N,0.000,K,A*23
$GNGGA,175819.000,4634.9445,N,00019.9885,E,1,9,1.06,72.6,M,48.4,M,,*79
$GNRMC,175819.000,A,4634.9445,N,00019.9885,E,0.000,0.00,070124,,,A,V*34
$GNVTG,0.00,T,,M,0.000,N,0.000,K,A*23
$GNGGA,175820.000,4634.9444,N,00019.9884,E,1,10,0.99,72.5,M,48.4,M,,*4F
$GNRMC,175820.000,A,4634.9444,N,00019.9884,E,0.000,0.00,070124,,,A,V*3E
$GNVTG,0.00,T,,M,0.000,N,0.000,K,A*23
$GNGGA,175821.000,4634.9441,N,00019.9885,E,1,10,0.99,72.4,M,48.4,M,,*4B
$GNRMC,175821.000,A,4634.9441,N,00019.9885,E,0.000,0.00,070124,,,A,V*3B
$GNVTG,0.00,T,,M,0.000,N,0.000,K,A*23
$GNGGA,175822.000,4634.9439,N,00019.9885,E,1,11,0.99,72.4,M,48.4,M,,*46
$GNRMC,175822.000,A,4634.9439,N,00019.9885,E,0.000,0.00,070124,,,A,V*37
$GNVTG,0.00,T,,M,0.000,N,0.000,K,A*23
$GNGGA,175823.000,4634.9436,N,00019.9887,E,1,11,0.99,72.3,M,48.4,M,,*4D
$GNRMC,175823.000,A,4634.9436,N,00019.9887,E,0.000,0.00,070124,,,A,V*3B
$GNVTG,0.00,T,,M,0.000,N,0.000,K,A*23
$GNGGA,175824.000,4634.9433,N,00019.9887,E,1,10,1.19,72.3,M,48.4,M,,*47
$GNRMC,175824.000,A,4634.9433,N,00019.9887,E,0.000,0.00,070124,,,A,V*39
$GNVTG,0.00,T,,M,0.000,N,0.000,K,A*23
$GNGGA,175825.000,4634.9439,N,00019.9899,E,1,10,1.19,72.3,M,48.4,M,,*43
$GNRMC,175825.000,A,4634.9439,N,00019.9899,E,0.000,0.00,070124,,,A,V*3D
$GNVTG,0.00,T,,M,0.000,N,0.000,K,A*23
$GNGGA,175826.000,4634.9440,N,00019.9910,E,1,11,0.99,72.2,M,48.4,M,,*47
$GNRMC,175826.000,A,4634.9440,N,00019.9910,E,0.000,0.00,070124,,,A,V*30
$GNVTG,0.00,T,,M,0.000,N,0.000,K,A*23
$GNGGA,175827.000,4634.9434,N,00019.9909,E,1,11,0.99,72.2,M,48.4,M,,*4D
$GNRMC,175827.000,A,4634.9434,N,00019.9909,E,0.000,0.00,070124,,,A,V*3A
$GNVTG,0.00,T,,M,0.000,N,0.000,K,A*23
$GNGGA,175828.000,4634.9427,N,00019.9899,E,1,11,0.99,72.1,M,48.4,M,,*4B
$GNRMC,175828.000,A,4634.9427,N,00019.9899,E,0.000,0.00,070124,,,A,V*3F
$GNVTG,0.00,T,,M,0.000,N,0.000,K,A*23
$GNGGA,175829.000,4634.9421,N,00019.9903,E,1,10,1.03,72.0,M,48.4,M,,*4C
$GNRMC,175829.000,A,4634.9421,N,00019.9903,E,0.000,0.00,070124,,,A,V*3A
$GNVTG,0.00,T,,M,0.000,N,0.000,K,A*23
$GNGGA,175830.000,4634.9421,N,00019.9903,E,1,10,1.03,72.0,M,48.4,M,,*44
$GNRMC,175830.000,A,4634.9421,N,00019.9903,E,0.000,0.00,070124,,,A,V*32
$GNVTG,0.00,T,,M,0.000,N,0.000,K,A*23
$GNGGA,175831.000,4634.9419,N,00019.9930,E,1,8,1.33,71.9,M,48.4,M,,*7E
$GNRMC,175831.000,A,4634.9419,N,00019.9930,E,0.000,0.00,070124,,,A,V*38
$GNVTG,0.00,T,,M,0.000,N,0.000,K,A*23
$GNGGA,175832.000,4634.9420,N,00019.9925,E,1,11,1.14,71.8,M,48.4,M,,*4F
$GNRMC,175832.000,A,4634.9420,N,00019.9925,E,0.000,0.00,070124,,,A,V*35
$GNVTG,0.00,T,,M,0.000,N,0.000,K,A*23
$GNGGA,175833.000,4634.9420,N,00019.9911,E,1,11,1.14,71.6,M,48.4,M,,*47
$GNRMC,175833.000,A,4634.9420,N,00019.9911,E,0.000,0.00,070124,,,A,V*33
$GNVTG,0.00,T,,M,0.000,N,0.000,K,A*23
$GNGGA,175834.000,4634.9417,N,00019.9890,E,1,11,1.14,71.4,M,48.4,M,,*4E
$GNRMC,175834.000,A,4634.9417,N,00019.9890,E,0.000,0.00,070124,,,A,V*38
$GNVTG,0.00,T,,M,0.000,N,0.000,K,A*23
$GNGGA,180005.592,,,,,0,0,,,M,,M,,*54
$GNRMC,180005.592,V,,,,,,,070124,,,N,V*2B
$GNVTG,0.00,T,,M,0.000,N,0.000,K,N*2C
$GNGGA,180006.092,,,,,0,0,,,M,,M,,*52
$GNRMC,180006.092,V,,,,,,,070124,,,N,V*2D
$GNVTG,0.00,T,,M,0.000,N,0.000,K,N*2C
$GNGGA,180006.592,,,,,0,0,,,M,,M,,*57
$GNRMC,180006.592,V,,,,,,,070124,,,N,V*28
$GNVTG,0.00,T,,M,0.000,N,0.000,K,N*2C
$GNGGA,180007.092,,,,,0,0,,,M,,M,,*53
$GNRMC,180007.092,V,,,,,,,070124,,,N,V*2C
$GNVTG,0.00,T,,M,0.000,N,0.000,K,N*2C
$GNGGA,180007.592,,,,,0,0,,,M,,M,,*56
$GNRMC,180007.592,V,,,,,,,070124,,,N,V*29
$GNVTG,0.00,T,,M,0.000,N,0.000,K,N*2C
$GNGGA,180008.092,,,,,0,0,,,M,,M,,*5C
$GNRMC,180008.092,V,,,,,,,070124,,,N,V*23
$GNVTG,0.00,T,,M,0.000,N,0.000,K,N*2C
$GNGGA,180008.592,,,,,0,0,,,M,,M,,*59
$GNRMC,180008.592,V,,,,,,,070124,,,N,V*26
$GNVTG,0.00,T,,M,0.000,N,0.000,K,N*2C
$GNGGA,180009.092,,,,,0,0,,,M,,M,,*5D
$GNRMC,180009.092,V,,,,,,,070124,,,N,V*22
$GNVTG,0.00,T,,M,0.000,N,0.000,K,N*2C
$GNGGA,180010.092,,,,,0,0,,,M,,M,,*55
$GNRMC,180010.092,V,,,,,,,070124,,,N,V*2A
$GNVTG,0.00,T,,M,0.000,N,0.000,K,N*2C
$GNGGA,180011.093,,,,,0,0,,,M,,M,,*55
$GNRMC,180011.093,V,,,,,,,070124,,,N,V*2A
$GNVTG,0.00,T,,M,0.000,N,0.000,K,N*2C
$GNGGA,180012.097,,,,,0,0,,,M,,M,,*52
$GNRMC,180012.097,V,,,,,,,070124,,,N,V*2D
$GNVTG,0.00,T,,M,0.000,N,0.000,K,N*2C
$GNGGA,180013.097,,,,,0,0,,,M,,M,,*53
$GNRMC,180013.097,V,,,,,,,070124,,,N,V*2C
$GNVTG,0.00,T,,M,0.000,N,0.000,K,N*2C
$GNGGA,180014.105,,,,,0,0,,,M,,M,,*5E
$GNRMC,180014.105,V,,,,,,,070124,,,N,V*21
$GNVTG,0.00,T,,M,0.000,N,0.000,K,N*2C
$GNGGA,180015.133,,,,,0,0,,,M,,M,,*5A
$GNRMC,180015.133,V,,,,,,,070124,,,N,V*25
$GNVTG,0.00,T,,M,0.000,N,0.000,K,N*2C
$GNGGA,180016.133,,,,,0,0,,,M,,M,,*59
$GNRMC,180016.133,V,,,,,,,070124,,,N,V*26
$GNVTG,0.00,T,,M,0.000,N,0.000,K,N*2C
$GNGGA,180017.133,,,,,0,0,,,M,,M,,*58
$GNRMC,180017.133,V,,,,,,,070124,,,N,V*27
$GNVTG,0.00,T,,M,0.000,N,0.000,K,N*2C
$GNGGA,180018.131,,,,,0,0,,,M,,M,,*55
$GNRMC,180018.131,V,,,,,,,070124,,,N,V*2A
$GNVTG,0.00,T,,M,0.000,N,0.000,K,N*2C
$GNGGA,180019.131,4634.9241,N,00019.9946,E,1,5,4.26,71.4,M,48.4,M,,*7E
$GNRMC,180019.131,A,4634.9241,N,00019.9946,E,0.000,0.00,070124,,,A,V*39
$GNVTG,0.00,T,,M,0.000,N,0.000,K,A*23
$GNGGA,180023.622,,,,,0,0,,,M,,M,,*58
$GNRMC,180023.622,V,,,,,,,070124,,,N,V*27
$GNVTG,0.00,T,,M,0.000,N,0.000,K,N*2C
$GNGGA,180024.122,,,,,0,0,,,M,,M,,*58
$GNRMC,180024.122,V,,,,,,,070124,,,N,V*27
$GNVTG,0.00,T,,M,0.000,N,0.000,K,N*2C
$GNGGA,180024.622,,,,,0,0,,,M,,M,,*5F
$GNRMC,180024.622,V,,,,,,,070124,,,N,V*20
$GNVTG,0.00,T,,M,0.000,N,0.000,K,N*2C
$GNGGA,180025.122,,,,,0,0,,,M,,M,,*59
$GNRMC,180025.122,V,,,,,,,070124,,,N,V*26
$GNVTG,0.00,T,,M,0.000,N,0.000,K,N*2C
$GNGGA,180025.622,,,,,0,0,,,M,,M,,*5E
$GNRMC,180025.622,V,,,,,,,070124,,,N,V*21
$GNVTG,0.00,T,,M,0.000,N,0.000,K,N*2C
$GNGGA,180026.122,,,,,0,0,,,M,,M,,*5A
$GNRMC,180026.122,V,,,,,,,070124,,,N,V*25
$GNVTG,0.00,T,,M,0.000,N,0.000,K,N*2C
$GNGGA,180026.622,,,,,0,0,,,M,,M,,*5D
$GNRMC,180026.622,V,,,,,,,070124,,,N,V*22
$GNVTG,0.00,T,,M,0.000,N,0.000,K,N*2C
$GNGGA,180027.122,,,,,0,0,,,M,,M,,*5B
$GNRMC,180027.122,V,,,,,,,070124,,,N,V*24
$GNVTG,0.00,T,,M,0.000,N,0.000,K,N*2C
$GNGGA,180028.122,4634.9423,N,00020.0006,E,1,5,1.63,71.5,M,48.4,M,,*77
$GNRMC,180028.122,A,4634.9423,N,00020.0006,E,0.000,0.00,070124,,,A,V*35
$GNVTG,0.00,T,,M,0.000,N,0.000,K,A*23
$GNGGA,180029.122,4634.9393,N,00019.9983,E,1,4,1.96,71.5,M,48.4,M,,*76
$GNRMC,180029.122,A,4634.9393,N,00019.9983,E,0.000,0.00,070124,,,A,V*3F
$GNVTG,0.00,T,,M,0.000,N,0.000,K,A*23
$GNGGA,180031.000,4634.9376,N,00019.9970,E,1,6,1.63,71.5,M,48.4,M,,*71
$GNRMC,180031.000,A,4634.9376,N,00019.9970,E,0.000,0.00,070124,,,A,V*30
$GNVTG,0.00,T,,M,0.000,N,0.000,K,A*23
$GNGGA,180032.000,4634.9349,N,00019.9938,E,1,6,1.63,71.5,M,48.4,M,,*72
$GNRMC,180032.000,A,4634.9349,N,00019.9938,E,0.000,0.00,070124,,,A,V*33
$GNVTG,0.00,T,,M,0.000,N,0.000,K,A*23
$GNGGA,180033.000,4634.9330,N,00019.9923,E,1,5,1.93,71.5,M,48.4,M,,*7B
$GNRMC,180033.000,A,4634.9330,N,00019.9923,E,0.000,0.00,070124,,,A,V*36
$GNVTG,0.00,T,,M,0.000,N,0.000,K,A*23
$GNGGA,180034.000,4634.9316,N,00019.9911,E,1,5,1.93,71.5,M,48.4,M,,*79
$GNRMC,180034.000,A,4634.9316,N,00019.9911,E,0.000,0.00,070124,,,A,V*34
$GNVTG,0.00,T,,M,0.000,N,0.000,K,A*23
$GNGGA,180035.000,4634.9311,N,00019.9903,E,1,5,1.93,71.5,M,48.4,M,,*7C
$GNRMC,180035.000,A,4634.9311,N,00019.9903,E,0.000,0.00,070124,,,A,V*31
$GNVTG,0.00,T,,M,0.000,N,0.000,K,A*23
$GNGGA,180036.000,4634.9310,N,00019.9903,E,1,6,1.57,71.5,M,48.4,M,,*75
$GNRMC,180036.000,A,4634.9310,N,00019.9903,E,0.000,0.00,070124,,,A,V*33
$GNVTG,0.00,T,,M,0.000,N,0.000,K,A*23
$GNGGA,180037.000,4634.9307,N,00019.9899,E,1,6,1.57,71.5,M,48.4,M,,*70
$GNRMC,180037.000,A,4634.9307,N,00019.9899,E,0.000,0.00,070124,,,A,V*36
$GNVTG,0.00,T,,M,0.000,N,0.000,K,A*23
$GNGGA,180037.959,,,,,0,0,,,M,,M,,*5E
$GNRMC,180037.959,V,,,,,,,070124,,,N,V*21
$GNVTG,0.00,T,,M,0.000,N,0.000,K,N*2C
$GNGGA,180039.000,4634.9497,N,00019.9710,E,1,6,1.57,71.5,M,48.4,M,,*7E
$GNRMC,180039.000,A,4634.9497,N,00019.9710,E,0.000,0.00,070124,,,A,V*38
$GNVTG,0.00,T,,M,0.000,N,0.000,K,A*23
$GNGGA,180040.000,4634.9429,N,00019.9826,E,1,7,1.29,71.5,M,48.4,M,,*77
$GNRMC,180040.000,A,4634.9429,N,00019.9826,E,0.000,0.00,070124,,,A,V*39
$GNVTG,0.00,T,,M,0.000,N,0.000,K,A*23
$GNGGA,180041.000,4634.9429,N,00019.9826,E,1,7,1.46,71.5,M,48.4,M,,*7F
$GNRMC,180041.000,A,4634.9429,N,00019.9826,E,0.000,0.00,070124,,,A,V*38
$GNVTG,0.00,T,,M,0.000,N,0.000,K,A*23
$GNGGA,180042.000,4634.9429,N,00019.9826,E,1,9,0.93,71.5,M,48.4,M,,*7B
$GNRMC,180042.000,A,4634.9429,N,00019.9826,E,0.000,0.00,070124,,,A,V*3B
$GNVTG,0.00,T,,M,0.000,N,0.000,K,A*23
$GNGGA,180043.000,4634.9412,N,00019.9815,E,1,9,0.93,71.4,M,48.4,M,,*73
$GNRMC,180043.000,A,4634.9412,N,00019.9815,E,0.000,0.00,070124,,,A,V*32
$GNVTG,0.00,T,,M,0.000,N,0.000,K,A*23
$GNGGA,180044.000,4634.9407,N,00019.9813,E,1,8,1.32,71.4,M,48.4,M,,*7D
$GNRMC,180044.000,A,4634.9407,N,00019.9813,E,0.000,0.00,070124,,,A,V*37
$GNVTG,0.00,T,,M,0.000,N,0.000,K,A*23
$GNGGA,180045.000,4634.9407,N,00019.9813,E,1,10,0.89,71.4,M,48.4,M,,*44
$GNRMC,180045.000,A,4634.9407,N,00019.9813,E,0.000,0.00,070124,,,A,V*36
$GNVTG,0.00,T,,M,0.000,N,0.000,K,A*23
$GNGGA,180046.000,4634.9407,N,00019.9813,E,1,9,0.98,71.4,M,48.4,M,,*7F
$GNRMC,180046.000,A,4634.9407,N,00019.9813,E,0.000,0.00,070124,,,A,V*35
$GNVTG,0.00,T,,M,0.000,N,0.000,K,A*23
$GNGGA,180047.000,4634.9407,N,00019.9813,E,1,9,0.98,71.4,M,48.4,M,,*7E
$GNRMC,180047.000,A,4634.9407,N,00019.9813,E,0.000,0.00,070124,,,A,V*34
$GNVTG,0.00,T,,M,0.000,N,0.000,K,A*23
$GNGGA,180048.000,4634.9400,N,00019.9796,E,1,9,0.98,71.3,M,48.4,M,,*73
$GNRMC,180048.000,A,4634.9400,N,00019.9796,E,0.000,0.00,070124,,,A,V*3E
$GNVTG,0.00,T,,M,0.000,N,0.000,K,A*23
$GNGGA,180049.000,4634.9400,N,00019.9796,E,1,10,0.89,71.3,M,48.4,M,,*4A
$GNRMC,180049.000,A,4634.9400,N,00019.9796,E,0.000,0.00,070124,,,A,V*3F
$GNVTG,0.00,T,,M,0.000,N,0.000,K,A*23
$GNGGA,180050.000,4634.9402,N,00019.9795,E,1,10,0.89,71.4,M,48.4,M,,*44
$GNRMC,180050.000,A,4634.9402,N,00019.9795,E,0.000,0.00,070124,,,A,V*36
$GNVTG,0.00,T,,M,0.000,N,0.000,K,A*23
$GNGGA,180051.000,4634.9404,N,00019.9802,E,1,9,0.98,71.3,M,48.4,M,,*7D
$GNRMC,180051.000,A,4634.9404,N,00019.9802,E,0.000,0.00,070124,,,A,V*30
$GNVTG,0.00,T,,M,0.000,N,0.000,K,A*23
$GNGGA,180052.000,4634.9405,N,00019.9805,E,1,8,1.65,71.4,M,48.4,M,,*7D
$GNRMC,180052.000,A,4634.9405,N,00019.9805,E,0.000,0.00,070124,,,A,V*35
$GNVTG,0.00,T,,M,0.000,N,0.000,K,A*23
$GNGGA,180053.000,4634.9405,N,00019.9809,E,1,9,1.01,71.4,M,48.4,M,,*73
$GNRMC,180053.000,A,4634.9405,N,00019.9809,E,0.000,0.00,070124,,,A,V*38
$GNVTG,0.00,T,,M,0.000,N,0.000,K,A*23
$GNGGA,180054.000,4634.9408,N,00019.9817,E,1,9,1.01,71.5,M,48.4,M,,*77
$GNRMC,180054.000,A,4634.9408,N,00019.9817,E,0.000,0.00,070124,,,A,V*3D
$GNVTG,0.00,T,,M,0.000,N,0.000,K,A*23
$GNGGA,180055.000,4634.9410,N,00019.9818,E,1,11,0.94,71.5,M,48.4,M,,*44
$GNRMC,180055.000,A,4634.9410,N,00019.9818,E,0.000,0.00,070124,,,A,V*3A
$GNVTG,0.00,T,,M,0.000,N,0.000,K,A*23
$GNGGA,180056.000,4634.9413,N,00019.9818,E,1,11,0.94,71.6,M,48.4,M,,*47
$GNRMC,180056.000,A,4634.9413,N,00019.9818,E,0.894,250.63,070124,,,A,V*3D
$GNVTG,250.63,T,,M,0.894,N,1.657,K,A*21
$GNGGA,180057.000,4634.9416,N,00019.9819,E,1,10,1.00,71.6,M,48.4,M,,*4F
$GNRMC,180057.000,A,4634.9416,N,00019.9819,E,0.000,250.63,070124,,,A,V*3D
$GNVTG,250.63,T,,M,0.000,N,0.000,K,A*21
$GNGGA,180058.000,4634.9416,N,00019.9819,E,1,10,0.99,71.6,M,48.4,M,,*41
$GNRMC,180058.000,A,4634.9416,N,00019.9819,E,1.021,257.05,070124,,,A,V*37
$GNVTG,257.05,T,,M,1.021,N,1.892,K,A*26
$GNGGA,180059.000,4634.9416,N,00019.9819,E,1,11,0.99,71.6,M,48.4,M,,*41
$GNRMC,180059.000,A,4634.9416,N,00019.9819,E,1.012,163.48,070124,,,A,V*3B
$GNVTG,163.48,T,,M,1.012,N,1.874,K,A*23
$GNGGA,180100.000,4634.9416,N,00019.9819,E,1,10,0.90,71.6,M,48.4,M,,*44
$GNRMC,180100.000,A,4634.9416,N,00019.9819,E,1.029,107.09,070124,,,A,V*39
$GNVTG,107.09,T,,M,1.029,N,1.907,K,A*29
$GNGGA,180101.000,4634.9416,N,00019.9819,E,1,10,0.90,71.6,M,48.4,M,,*45
$GNRMC,180101.000,A,4634.9416,N,00019.9819,E,0.000,107.09,070124,,,A,V*32
$GNVTG,107.09,T,,M,0.000,N,0.000,K,A*2C
$GNGGA,180102.000,4634.9416,N,00019.9819,E,1,12,0.76,71.6,M,48.4,M,,*4C
$GNRMC,180102.000,A,4634.9416,N,00019.9819,E,0.000,107.09,070124,,,A,V*31
$GNVTG,107.09,T,,M,0.000,N,0.000,K,A*2C
$GNGGA,180103.000,4634.9416,N,00019.9819,E,1,13,0.76,71.6,M,48.4,M,,*4C
$GNRMC,180103.000,A,4634.9416,N,00019.9819,E,0.000,107.09,070124,,,A,V*30
$GNVTG,107.09,T,,M,0.000,N,0.000,K,A*2C
$GNGGA,180104.000,4634.9416,N,00019.9819,E,1,13,0.76,71.6,M,48.4,M,,*4B
$GNRMC,180104.000,A,4634.9416,N,00019.9819,E,0.000,107.09,070124,,,A,V*37
$GNVTG,107.09,T,,M,0.000,N,0.000,K,A*2C
$GNGGA,180105.000,4634.9416,N,00019.9819,E,1,16,0.70,71.6,M,48.4,M,,*49
$GNRMC,180105.000,A,4634.9416,N,00019.9819,E,0.000,107.09,070124,,,A,V*36
$GNVTG,107.09,T,,M,0.000,N,0.000,K,A*2C
$GNGGA,180106.000,4634.9429,N,00019.9879,E,1,17,0.68,71.3,M,48.4,M,,*4D
$GNRMC,180106.000,A,4634.9429,N,00019.9879,E,0.000,107.09,070124,,,A,V*3F
$GNVTG,107.09,T,,M,0.000,N,0.000,K,A*2C
$GNGGA,180107.000,4634.9429,N,00019.9879,E,1,16,0.70,71.4,M,48.4,M,,*43
$GNRMC,180107.000,A,4634.9429,N,00019.9879,E,0.000,107.09,070124,,,A,V*3E
$GNVTG,107.09,T,,M,0.000,N,0.000,K,A*2C
$GNGGA,180108.000,4634.9429,N,00019.9879,E,1,18,0.68,71.4,M,48.4,M,,*4B
$GNRMC,180108.000,A,4634.9429,N,00019.9879,E,0.000,107.09,070124,,,A,V*31
$GNVTG,107.09,T,,M,0.000,N,0.000,K,A*2C
$GNGGA,180109.000,4634.9427,N,00019.9867,E,1,18,0.68,71.9,M,48.4,M,,*46
$GNRMC,180109.000,A,4634.9427,N,00019.9867,E,0.000,107.09,070124,,,A,V*31
$GNVTG,107.09,T,,M,0.000,N,0.000,K,A*2C
$GNGGA,180110.000,4634.9426,N,00019.9856,E,1,19,0.66,72.2,M,48.4,M,,*4A
$GNRMC,180110.000,A,4634.9426,N,00019.9856,E,0.000,107.09,070124,,,A,V*3A
$GNVTG,107.09,T,,M,0.000,N,0.000,K,A*2C
$GNGGA,180111.000,4634.9427,N,00019.9845,E,1,18,0.68,72.4,M,48.4,M,,*41
$GNRMC,180111.000,A,4634.9427,N,00019.9845,E,0.000,107.09,070124,,,A,V*38
$GNVTG,107.09,T,,M,0.000,N,0.000,K,A*2C
$GNGGA,180112.000,4634.9427,N,00019.9834,E,1,17,0.70,72.7,M,48.4,M,,*41
$GNRMC,180112.000,A,4634.9427,N,00019.9834,E,2.479,264.80,070124,,,A,V*32
$GNVTG,264.80,T,,M,2.479,N,4.594,K,A*2F
$GNGGA,180113.000,4634.9426,N,00019.9827,E,1,16,0.75,72.9,M,48.4,M,,*49
$GNRMC,180113.000,A,4634.9426,N,00019.9827,E,2.288,245.21,070124,,,A,V*30
$GNVTG,245.21,T,,M,2.288,N,4.239,K,A*2F
$GNGGA,180114.000,4634.9428,N,00019.9827,E,1,16,0.75,73.0,M,48.4,M,,*48
$GNRMC,180114.000,A,4634.9428,N,00019.9827,E,0.000,245.21,070124,,,A,V*39
$GNVTG,245.21,T,,M,0.000,N,0.000,K,A*23
$GNGGA,180115.000,4634.9426,N,00019.9831,E,1,16,0.73,73.1,M,48.4,M,,*47
$GNRMC,180115.000,A,4634.9426,N,00019.9831,E,2.178,105.28,070124,,,A,V*33
$GNVTG,105.28,T,,M,2.178,N,4.036,K,A*20
$GNGGA,180116.000,4634.9423,N,00019.9837,E,1,16,0.73,73.1,M,48.4,M,,*47
$GNRMC,180116.000,A,4634.9423,N,00019.9837,E,2.351,114.08,070124,,,A,V*38
$GNVTG,114.08,T,,M,2.351,N,4.356,K,A*2E
$GNGGA,180117.000,4634.9422,N,00019.9842,E,1,16,0.73,73.2,M,48.4,M,,*46
$GNRMC,180117.000,A,4634.9422,N,00019.9842,E,2.360,114.13,070124,,,A,V*32
$GNVTG,114.13,T,,M,2.360,N,4.373,K,A*21
$GNGGA,180118.000,4634.9422,N,00019.9845,E,1,16,0.73,73.2,M,48.4,M,,*4E
$GNRMC,180118.000,A,4634.9422,N,00019.9845,E,2.272,87.72,070124,,,A,V*04
$GNVTG,87.72,T,,M,2.272,N,4.210,K,A*1B
$GNGGA,180119.000,4634.9421,N,00019.9844,E,1,17,0.73,73.5,M,48.4,M,,*4B
$GNRMC,180119.000,A,4634.9421,N,00019.9844,E,2.083,138.62,070124,,,A,V*3F
$GNVTG,138.62,T,,M,2.083,N,3.859,K,A*23
$GNGGA,180120.000,4634.9418,N,00019.9845,E,1,17,0.73,73.6,M,48.4,M,,*49
$GNRMC,180120.000,A,4634.9418,N,00019.9845,E,0.000,138.62,070124,,,A,V*37
$GNVTG,138.62,T,,M,0.000,N,0.000,K,A*2D
$GNGGA,180121.000,4634.9418,N,00019.9846,E,1,16,0.73,73.6,M,48.4,M,,*4A
$GNRMC,180121.000,A,4634.9418,N,00019.9846,E,1.552,141.16,070124,,,A,V*3B
$GNVTG,141.16,T,,M,1.552,N,2.875,K,A*2B
$GNGGA,180122.000,4634.9419,N,00019.9848,E,1,15,0.79,73.7,M,48.4,M,,*4E
$GNRMC,180122.000,A,4634.9419,N,00019.9848,E,1.316,150.08,070124,,,A,V*3E
$GNVTG,150.08,T,,M,1.316,N,2.439,K,A*26
$GNGGA,180123.000,4634.9417,N,00019.9843,E,1,15,0.79,73.8,M,48.4,M,,*45
$GNRMC,180123.000,A,4634.9417,N,00019.9843,E,0.000,150.08,070124,,,A,V*3F
$GNVTG,150.08,T,,M,0.000,N,0.000,K,A*2F
$GNGGA,180124.000,4634.9419,N,00019.9836,E,1,15,0.79,73.9,M,48.4,M,,*4F
$GNRMC,180124.000,A,4634.9419,N,00019.9836,E,1.205,278.58,070124,,,A,V*3E
$GNVTG,278.58,T,,M,1.205,N,2.232,K,A*24
$GNGGA,180125.000,4634.9419,N,00019.9832,E,1,13,0.87,73.9,M,48.4,M,,*4D
$GNRMC,180125.000,A,4634.9419,N,00019.9832,E,1.191,249.49,070124,,,A,V*37
$GNVTG,249.49,T,,M,1.191,N,2.207,K,A*2E
$GNGGA,180126.000,4634.9422,N,00019.9829,E,1,14,0.76,74.1,M,48.4,M,,*4A
$GNRMC,180126.000,A,4634.9422,N,00019.9829,E,0.000,249.49,070124,,,A,V*3E
$GNVTG,249.49,T,,M,0.000,N,0.000,K,A*21
$GNGGA,180127.000,4634.9426,N,00019.9822,E,1,14,0.76,74.2,M,48.4,M,,*47
$GNRMC,180127.000,A,4634.9426,N,00019.9822,E,0.000,249.49,070124,,,A,V*30
$GNVTG,249.49,T,,M,0.000,N,0.000,K,A*21
$GNGGA,180128.000,4634.9428,N,00019.9816,E,1,14,0.77,74.2,M,48.4,M,,*40
$GNRMC,180128.000,A,4634.9428,N,00019.9816,E,0.000,249.49,070124,,,A,V*36
$GNVTG,249.49,T,,M,0.000,N,0.000,K,A*21
$GNGGA,180129.000,4634.9430,N,00019.9811,E,1,14,0.77,74.4,M,48.4,M,,*49
$GNRMC,180129.000,A,4634.9430,N,00019.9811,E,0.000,249.49,070124,,,A,V*39
$GNVTG,249.49,T,,M,0.000,N,0.000,K,A*21
$GNGGA,180130.000,4634.9433,N,00019.9803,E,1,14,0.78,74.5,M,48.4,M,,*4F
$GNRMC,180130.000,A,4634.9433,N,00019.9803,E,0.000,249.49,070124,,,A,V*31
$GNVTG,249.49,T,,M,0.000,N,0.000,K,A*21
$GNGGA,180131.000,4634.9433,N,00019.9802,E,1,13,0.87,74.6,M,48.4,M,,*4B
$GNRMC,180131.000,A,4634.9433,N,00019.9802,E,0.000,249.49,070124,,,A,V*31
$GNVTG,249.49,T,,M,0.000,N,0.000,K,A*21
$GNGGA,180132.000,4634.9434,N,00019.9801,E,1,13,0.88,74.6,M,48.4,M,,*43
$GNRMC,180132.000,A,4634.9434,N,00019.9801,E,0.000,249.49,070124,,,A,V*36
$GNVTG,249.49,T,,M,0.000,N,0.000,K,A*21
$GNGGA,180133.000,4634.9434,N,00019.9801,E,1,13,0.87,74.6,M,48.4,M,,*4D
$GNRMC,180133.000,A,4634.9434,N,00019.9801,E,0.000,249.49,070124,,,A,V*37
$GNVTG,249.49,T,,M,0.000,N,0.000,K,A*21
$GNGGA,180134.000,4634.9434,N,00019.9805,E,1,12,0.94,74.7,M,48.4,M,,*4C
$GNRMC,180134.000,A,4634.9434,N,00019.9805,E,0.000,249.49,070124,,,A,V*34
$GNVTG,249.49,T,,M,0.000,N,0.000,K,A*21
$GNGGA,180135.000,4634.9436,N,00019.9807,E,1,11,0.97,74.8,M,48.4,M,,*42
$GNRMC,180135.000,A,4634.9436,N,00019.9807,E,0.000,249.49,070124,,,A,V*35
$GNVTG,249.49,T,,M,0.000,N,0.000,K,A*21
$GNGGA,180136.000,4634.9436,N,00019.9812,E,1,9,1.16,74.9,M,48.4,M,,*75
$GNRMC,180136.000,A,4634.9436,N,00019.9812,E,0.000,249.49,070124,,,A,V*32
$GNVTG,249.49,T,,M,0.000,N,0.000,K,A*21
$GNGGA,180155.554,,,,,0,0,,,M,,M,,*5A
$GNRMC,180155.554,V,,,,,,,070124,,,N,V*25
$GNVTG,0.00,T,,M,0.000,N,0.000,K,N*2C
$GNGGA,180156.054,,,,,0,0,,,M,,M,,*5C
$GNRMC,180156.054,V,,,,,,,070124,,,N,V*23
$GNVTG,0.00,T,,M,0.000,N,0.000,K,N*2C
$GNGGA,180156.554,,,,,0,0,,,M,,M,,*59
$GNRMC,180156.554,V,,,,,,,070124,,,N,V*26
$GNVTG,0.00,T,,M,0.000,N,0.000,K,N*2C
$GNGGA,180157.054,,,,,0,0,,,M,,M,,*5D
$GNRMC,180157.054,V,,,,,,,070124,,,N,V*22
$GNVTG,0.00,T,,M,0.000,N,0.000,K,N*2C
$GNGGA,180157.554,,,,,0,0,,,M,,M,,*58
$GNRMC,180157.554,V,,,,,,,070124,,,N,V*27
$GNVTG,0.00,T,,M,0.000,N,0.000,K,N*2C
$GNGGA,180158.054,,,,,0,0,,,M,,M,,*52
$GNRMC,180158.054,V,,,,,,,070124,,,N,V*2D
$GNVTG,0.00,T,,M,0.000,N,0.000,K,N*2C
$GNGGA,180158.554,,,,,0,0,,,M,,M,,*57
$GNRMC,180158.554,V,,,,,,,070124,,,N,V*28
$GNVTG,0.00,T,,M,0.000,N,0.000,K,N*2C
$GNGGA,180159.054,,,,,0,0,,,M,,M,,*53
$GNRMC,180159.054,V,,,,,,,070124,,,N,V*2C
$GNVTG,0.00,T,,M,0.000,N,0.000,K,N*2C
$GNGGA,180200.054,,,,,0,0,,,M,,M,,*5C
$GNRMC,180200.054,V,,,,,,,070124,,,N,V*23
$GNVTG,0.00,T,,M,0.000,N,0.000,K,N*2C
$GNGGA,180352.430,,,,,0,0,,,M,,M,,*5C
$GNRMC,180352.430,V,,,,,,,070124,,,N,V*23
$GNVTG,0.00,T,,M,0.000,N,0.000,K,N*2C
$GNGGA,180352.930,,,,,0,0,,,M,,M,,*51
$GNRMC,180352.930,V,,,,,,,070124,,,N,V*2E
$GNVTG,0.00,T,,M,0.000,N,0.000,K,N*2C
$GNGGA,180353.430,,,,,0,0,,,M,,M,,*5D
$GNRMC,180353.430,V,,,,,,,070124,,,N,V*22
$GNVTG,0.00,T,,M,0.000,N,0.000,K,N*2C
$GNGGA,180353.930,,,,,0,0,,,M,,M,,*50
$GNRMC,180353.930,V,,,,,,,070124,,,N,V*2F
$GNVTG,0.00,T,,M,0.000,N,0.000,K,N*2C
$GNGGA,180354.430,,,,,0,0,,,M,,M,,*5A
$GNRMC,180354.430,V,,,,,,,070124,,,N,V*25
$GNVTG,0.00,T,,M,0.000,N,0.000,K,N*2C
$GNGGA,180355.350,,,,,0,0,,,M,,M,,*5A
$GNRMC,180355.350,V,,,,,,,070124,,,N,V*25
$GNVTG,0.00,T,,M,0.000,N,0.000,K,N*2C
$GNGGA,180355.850,,,,,0,0,,,M,,M,,*51
$GNRMC,180355.850,V,,,,,,,070124,,,N,V*2E
$GNVTG,0.00,T,,M,0.000,N,0.000,K,N*2C
$GNGGA,180356.350,,,,,0,0,,,M,,M,,*59
$GNRMC,180356.350,V,,,,,,,070124,,,N,V*26
$GNVTG,0.00,T,,M,0.000,N,0.000,K,N*2C
$GNGGA,180356.850,,,,,0,0,,,M,,M,,*52
$GNRMC,180356.850,V,,,,,,,070124,,,N,V*2D
$GNVTG,0.00,T,,M,0.000,N,0.000,K,N*2C
$GNGGA,180357.350,,,,,0,0,,,M,,M,,*58
$GNRMC,180357.350,V,,,,,,,070124,,,N,V*27
$GNVTG,0.00,T,,M,0.000,N,0.000,K,N*2C
$GNGGA,180357.850,,,,,0,0,,,M,,M,,*53
$GNRMC,180357.850,V,,,,,,,070124,,,N,V*2C
$GNVTG,0.00,T,,M,0.000,N,0.000,K,N*2C
$GNGGA,180358.350,,,,,0,0,,,M,,M,,*57
$GNRMC,180358.350,V,,,,,,,070124,,,N,V*28
$GNVTG,0.00,T,,M,0.000,N,0.000,K,N*2C
$GNGGA,180358.850,,,,,0,0,,,M,,M,,*5C
$GNRMC,180358.850,V,,,,,,,070124,,,N,V*23
$GNVTG,0.00,T,,M,0.000,N,0.000,K,N*2C
$GNGGA,180359.850,,,,,0,0,,,M,,M,,*5D
$GNRMC,180359.850,V,,,,,,,070124,,,N,V*22
$GNVTG,0.00,T,,M,0.000,N,0.000,K,N*2C
$GNGGA,180400.850,,,,,0,0,,,M,,M,,*56
$GNRMC,180400.850,V,,,,,,,070124,,,N,V*29
$GNVTG,0.00,T,,M,0.000,N,0.000,K,N*2C
$GNGGA,180401.850,,,,,0,0,,,M,,M,,*57
$GNRMC,180401.850,V,,,,,,,070124,,,N,V*28
$GNVTG,0.00,T,,M,0.000,N,0.000,K,N*2C
$GNGGA,180402.850,,,,,0,0,,,M,,M,,*54
$GNRMC,180402.850,V,,,,,,,070124,,,N,V*2B
$GNVTG,0.00,T,,M,0.000,N,0.000,K,N*2C
$GNGGA,180403.850,4634.9384,N,00019.9939,E,1,4,2.45,90.8,M,48.4,M,,*7E
$GNRMC,180403.850,A,4634.9384,N,00019.9939,E,0.000,0.00,070124,,,A,V*38
$GNVTG,0.00,T,,M,0.000,N,0.000,K,A*23
$GNGGA,180404.850,4634.9396,N,00019.9924,E,1,9,1.10,85.9,M,48.4,M,,*7D
$GNRMC,180404.850,A,4634.9396,N,00019.9924,E,0.000,0.00,070124,,,A,V*30
$GNVTG,0.00,T,,M,0.000,N,0.000,K,A*23
$GNGGA,180405.850,4634.9402,N,00019.9916,E,1,10,1.01,83.1,M,48.4,M,,*41
$GNRMC,180405.850,A,4634.9402,N,00019.9916,E,0.000,0.00,070124,,,A,V*3A
$GNVTG,0.00,T,,M,0.000,N,0.000,K,A*23
$GNGGA,180406.850,4634.9396,N,00019.9905,E,1,10,1.01,81.0,M,48.4,M,,*49
$GNRMC,180406.850,A,4634.9396,N,00019.9905,E,0.000,0.00,070124,,,A,V*31
$GNVTG,0.00,T,,M,0.000,N,0.000,K,A*23
$GNGGA,180407.850,4634.9401,N,00019.9898,E,1,10,1.01,79.4,M,48.4,M,,*47
$GNRMC,180407.850,A,4634.9401,N,00019.9898,E,0.000,0.00,070124,,,A,V*3C
$GNVTG,0.00,T,,M,0.000,N,0.000,K,A*23
$GNGGA,180408.850,4634.9405,N,00019.9871,E,1,10,1.01,78.0,M,48.4,M,,*4E
$GNRMC,180408.850,A,4634.9405,N,00019.9871,E,0.000,0.00,070124,,,A,V*30
$GNVTG,0.00,T,,M,0.000,N,0.000,K,A*23
$GNGGA,180409.850,4634.9401,N,00019.9853,E,1,11,0.90,77.7,M,48.4,M,,*4B
$GNRMC,180409.850,A,4634.9401,N,00019.9853,E,0.000,0.00,070124,,,A,V*35
$GNVTG,0.00,T,,M,0.000,N,0.000,K,A*23
$GNGGA,180410.850,4634.9400,N,00019.9844,E,1,12,0.84,77.4,M,48.4,M,,*41
$GNRMC,180410.850,A,4634.9400,N,00019.9844,E,0.000,0.00,070124,,,A,V*3A
$GNVTG,0.00,T,,M,0.000,N,0.000,K,A*23
$GNGGA,180411.850,4634.9397,N,00019.9834,E,1,12,0.84,76.7,M,48.4,M,,*4C
$GNRMC,180411.850,A,4634.9397,N,00019.9834,E,0.000,0.00,070124,,,A,V*35
$GNVTG,0.00,T,,M,0.000,N,0.000,K,A*23
$GNGGA,180412.850,4634.9393,N,00019.9833,E,1,11,0.91,76.1,M,48.4,M,,*4D
$GNRMC,180412.850,A,4634.9393,N,00019.9833,E,0.000,0.00,070124,,,A,V*35
$GNVTG,0.00,T,,M,0.000,N,0.000,K,A*23
$GNGGA,180413.850,4634.9380,N,00019.9703,E,1,11,0.91,75.6,M,48.4,M,,*46
$GNRMC,180413.850,A,4634.9380,N,00019.9703,E,0.000,0.00,070124,,,A,V*3A
$GNVTG,0.00,T,,M,0.000,N,0.000,K,A*23
$GNGGA,180415.000,4634.9379,N,00019.9702,E,1,12,0.84,75.1,M,48.4,M,,*4A
$GNRMC,180415.000,A,4634.9379,N,00019.9702,E,0.000,0.00,070124,,,A,V*36
$GNVTG,0.00,T,,M,0.000,N,0.000,K,A*23
$GNGGA,180416.000,4634.9374,N,00019.9698,E,1,13,0.78,74.7,M,48.4,M,,*43
$GNRMC,180416.000,A,4634.9374,N,00019.9698,E,0.000,0.00,070124,,,A,V*3A
$GNVTG,0.00,T,,M,0.000,N,0.000,K,A*23
$GNGGA,180417.000,4634.9370,N,00019.9696,E,1,12,0.81,74.3,M,48.4,M,,*4B
$GNRMC,180417.000,A,4634.9370,N,00019.9696,E,0.000,0.00,070124,,,A,V*31
$GNVTG,0.00,T,,M,0.000,N,0.000,K,A*23
$GNGGA,180418.000,4634.9366,N,00019.9696,E,1,12,0.81,74.0,M,48.4,M,,*40
$GNRMC,180418.000,A,4634.9366,N,00019.9696,E,0.000,0.00,070124,,,A,V*39
$GNVTG,0.00,T,,M,0.000,N,0.000,K,A*23
$GNGGA,180419.000,4634.9362,N,00019.9697,E,1,13,0.76,73.8,M,48.4,M,,*42
$GNRMC,180419.000,A,4634.9362,N,00019.9697,E,0.000,0.00,070124,,,A,V*3D
$GNVTG,0.00,T,,M,0.000,N,0.000,K,A*23
$GNGGA,180420.000,4634.9364,N,00019.9698,E,1,13,0.76,73.8,M,48.4,M,,*41
$GNRMC,180420.000,A,4634.9364,N,00019.9698,E,0.000,0.00,070124,,,A,V*3E
$GNVTG,0.00,T,,M,0.000,N,0.000,K,A*23
$GNGGA,180421.000,4634.9365,N,00019.9703,E,1,13,0.76,73.8,M,48.4,M,,*42
$GNRMC,180421.000,A,4634.9365,N,00019.9703,E,0.000,0.00,070124,,,A,V*3D
$GNVTG,0.00,T,,M,0.000,N,0.000,K,A*23
$GNGGA,180422.000,4634.9370,N,00019.9709,E,1,15,0.74,73.9,M,48.4,M,,*4A
$GNRMC,180422.000,A,4634.9370,N,00019.9709,E,0.000,0.00,070124,,,A,V*30
$GNVTG,0.00,T,,M,0.000,N,0.000,K,A*23
$GNGGA,180423.000,4634.9368,N,00019.9711,E,1,16,0.74,73.9,M,48.4,M,,*48
$GNRMC,180423.000,A,4634.9368,N,00019.9711,E,0.000,0.00,070124,,,A,V*31
$GNVTG,0.00,T,,M,0.000,N,0.000,K,A*23
$GNGGA,180424.000,4634.9367,N,00019.9710,E,1,15,0.77,73.9,M,48.4,M,,*41
$GNRMC,180424.000,A,4634.9367,N,00019.9710,E,0.000,0.00,070124,,,A,V*38
$GNVTG,0.00,T,,M,0.000,N,0.000,K,A*23
$GNGGA,180425.000,4634.9369,N,00019.9711,E,1,15,0.77,73.9,M,48.4,M,,*4F
$GNRMC,180425.000,A,4634.9369,N,00019.9711,E,0.000,0.00,070124,,,A,V*36
$GNVTG,0.00,T,,M,0.000,N,0.000,K,A*23
$GNGGA,180426.000,4634.9371,N,00019.9712,E,1,14,0.85,74.0,M,48.4,M,,*44
$GNRMC,180426.000,A,4634.9371,N,00019.9712,E,0.000,0.00,070124,,,A,V*3F
$GNVTG,0.00,T,,M,0.000,N,0.000,K,A*23
$GNGGA,180427.000,4634.9370,N,00019.9712,E,1,14,0.85,74.1,M,48.4,M,,*45
$GNRMC,180427.000,A,4634.9370,N,00019.9712,E,0.000,0.00,070124,,,A,V*3F
$GNVTG,0.00,T,,M,0.000,N,0.000,K,A*23
$GNGGA,180428.000,4634.9371,N,00019.9709,E,1,14,0.85,74.2,M,48.4,M,,*42
$GNRMC,180428.000,A,4634.9371,N,00019.9709,E,0.000,0.00,070124,,,A,V*3B
$GNVTG,0.00,T,,M,0.000,N,0.000,K,A*23
$GNGGA,180429.000,4634.9374,N,00019.9711,E,1,13,0.92,74.3,M,48.4,M,,*4F
$GNRMC,180429.000,A,4634.9374,N,00019.9711,E,0.000,0.00,070124,,,A,V*36
$GNVTG,0.00,T,,M,0.000,N,0.000,K,A*23
$GNGGA,180430.000,4634.9379,N,00019.9706,E,1,14,0.87,74.3,M,48.4,M,,*4F
$GNRMC,180430.000,A,4634.9379,N,00019.9706,E,0.000,0.00,070124,,,A,V*35
$GNVTG,0.00,T,,M,0.000,N,0.000,K,A*23
$GNGGA,180431.000,4634.9378,N,00019.9710,E,1,15,0.80,74.4,M,48.4,M,,*49
$GNRMC,180431.000,A,4634.9378,N,00019.9710,E,0.000,0.00,070124,,,A,V*32
$GNVTG,0.00,T,,M,0.000,N,0.000,K,A*23
$GNGGA,180459.787,,,,,0,0,,,M,,M,,*5F
$GNRMC,180459.787,V,,,,,,,070124,,,N,V*20
$GNVTG,0.00,T,,M,0.000,N,0.000,K,N*2C
$GNGGA,180500.287,,,,,0,0,,,M,,M,,*57
$GNRMC,180500.287,V,,,,,,,070124,,,N,V*28
$GNVTG,0.00,T,,M,0.000,N,0.000,K,N*2C
$GNGGA,180502.171,,,,,0,0,,,M,,M,,*5F
$GNRMC,180502.171,V,,,,,,,070124,,,N,V*20
$GNVTG,0.00,T,,M,0.000,N,0.000,K,N*2C
$GNGGA,180502.671,,,,,0,0,,,M,,M,,*58
$GNRMC,180502.671,V,,,,,,,070124,,,N,V*27
$GNVTG,0.00,T,,M,0.000,N,0.000,K,N*2C
$GNGGA,180503.171,,,,,0,0,,,M,,M,,*5E
$GNRMC,180503.171,V,,,,,,,070124,,,N,V*21
$GNVTG,0.00,T,,M,0.000,N,0.000,K,N*2C
$GNGGA,180503.671,,,,,0,0,,,M,,M,,*59
$GNRMC,180503.671,V,,,,,,,070124,,,N,V*26
$GNVTG,0.00,T,,M,0.000,N,0.000,K,N*2C
$GNGGA,180504.171,,,,,0,0,,,M,,M,,*59
$GNRMC,180504.171,V,,,,,,,070124,,,N,V*26
$GNVTG,0.00,T,,M,0.000,N,0.000,K,N*2C
$GNGGA,180504.671,,,,,0,0,,,M,,M,,*5E
$GNRMC,180504.671,V,,,,,,,070124,,,N,V*21
$GNVTG,0.00,T,,M,0.000,N,0.000,K,N*2C
$GNGGA,180505.171,,,,,0,0,,,M,,M,,*58
$GNRMC,180505.171,V,,,,,,,070124,,,N,V*27
$GNVTG,0.00,T,,M,0.000,N,0.000,K,N*2C
$GNGGA,180505.671,,,,,0,0,,,M,,M,,*5F
$GNRMC,180505.671,V,,,,,,,070124,,,N,V*20
$GNVTG,0.00,T,,M,0.000,N,0.000,K,N*2C
$GNGGA,180506.671,,,,,0,0,,,M,,M,,*5C
$GNRMC,180506.671,V,,,,,,,070124,,,N,V*23
$GNVTG,0.00,T,,M,0.000,N,0.000,K,N*2C
$GNGGA,180507.671,,,,,0,0,,,M,,M,,*5D
$GNRMC,180507.671,V,,,,,,,070124,,,N,V*22
$GNVTG,0.00,T,,M,0.000,N,0.000,K,N*2C
$GNGGA,180508.687,4634.9286,N,00019.9966,E,1,5,1.22,74.5,M,48.4,M,,*7D
$GNRMC,180508.687,A,4634.9286,N,00019.9966,E,0.000,0.00,070124,,,A,V*3F
$GNVTG,0.00,T,,M,0.000,N,0.000,K,A*23
$GNGGA,180509.692,4634.9287,N,00019.9977,E,1,8,1.04,74.5,M,48.4,M,,*70
$GNRMC,180509.692,A,4634.9287,N,00019.9977,E,0.000,0.00,070124,,,A,V*3B
$GNVTG,0.00,T,,M,0.000,N,0.000,K,A*23
$GNGGA,180510.689,4634.9297,N,00019.9980,E,1,11,0.88,74.5,M,48.4,M,,*46
$GNRMC,180510.689,A,4634.9297,N,00019.9980,E,0.000,0.00,070124,,,A,V*30
$GNVTG,0.00,T,,M,0.000,N,0.000,K,A*23
$GNGGA,180511.690,4634.9294,N,00019.9982,E,1,9,0.95,74.5,M,48.4,M,,*7B
$GNRMC,180511.690,A,4634.9294,N,00019.9982,E,0.000,0.00,070124,,,A,V*38
$GNVTG,0.00,T,,M,0.000,N,0.000,K,A*23
$GNGGA,180512.692,4634.9282,N,00019.9973,E,1,9,0.95,74.4,M,48.4,M,,*72
$GNRMC,180512.692,A,4634.9282,N,00019.9973,E,0.000,0.00,070124,,,A,V*30
$GNVTG,0.00,T,,M,0.000,N,0.000,K,A*23
$GNGGA,180513.688,4634.9286,N,00019.9990,E,1,9,0.95,74.5,M,48.4,M,,*70
$GNRMC,180513.688,A,4634.9286,N,00019.9990,E,0.000,0.00,070124,,,A,V*33
$GNVTG,0.00,T,,M,0.000,N,0.000,K,A*23
$GNGGA,180514.686,4634.9288,N,00020.0005,E,1,8,0.99,74.5,M,48.4,M,,*7C
$GNRMC,180514.686,A,4634.9288,N,00020.0005,E,0.000,0.00,070124,,,A,V*32
$GNVTG,0.00,T,,M,0.000,N,0.000,K,A*23
